Time (s),Altitude (m),Vertical velocity (m/s),Vertical acceleration (m/s²),Total velocity (m/s),Total acceleration (m/s²),Position East of launch (m),Position North of launch (m),Lateral distance (m),Lateral direction (°),Lateral velocity (m/s),Lateral acceleration (m/s²),Latitude (°),Longitude (°),Gravitational acceleration (m/s²),Angle of attack (°),Roll rate (°/s),Pitch rate (°/s),Yaw rate (°/s),Mass (g),Motor mass (g),Longitudinal moment of inertia (kg·m²),Rotational moment of inertia (kg·m²),CP location (cm),CG location (cm),Stability margin calibers (​),Mach number (​),Reynolds number (​),Thrust (N),Drag force (N),Drag coefficient (​),Axial drag coefficient (​),Friction drag coefficient (​),Pressure drag coefficient (​),Base drag coefficient (​),Normal force coefficient (​),Pitch moment coefficient (​),Yaw moment coefficient (​),Side force coefficient (​),Roll moment coefficient (​),Roll forcing coefficient (​),Roll damping coefficient (​),Pitch damping coefficient (​),Coriolis acceleration (m/s²),Reference length (cm),Reference area (cm²),Vertical orientation (zenith) (°),Lateral orientation (azimuth) (°),Wind velocity (m/s),Air temperature (°C),Air pressure (mbar),Speed of sound (m/s),Simulation time step (s),Computation time (s)
0.01,-0.00047,-0.09321,-9.32062,0.09321,9.32062,0,0,0,0,0,0,28.61,-80.6,9.79218,91.04908,0,0,0,46599.88038,26999.7313,53.46254,0.10656,NaN,245.24967,NaN,0.01496,1466430.037,21.9744,0,0.55209,-0.00001,0.46883,0.04055,0.0427,NaN,NaN,NaN,NaN,NaN,NaN,NaN,NaN,0.00001,15.24,182.41469,90,0,5.08991,15,1013.25,340.3889,0.01,0.00312
0.02,-0.00046,-0.09245,-9.24483,0.09245,9.24483,0,0,0,0,0,0,28.61,-80.6,9.79218,91.01438,0,0,0,46599.61168,26999.4626,53.46234,0.10656,NaN,245.24933,NaN,0.01534,1504258.395,25.506,0,0.54982,-0.00001,0.46656,0.04055,0.0427,NaN,NaN,NaN,NaN,NaN,NaN,NaN,NaN,0.00001,15.24,182.41469,90,0,5.22127,15,1013.25,340.3889,0.01,0.00414
0.03,-0.00046,-0.09169,-9.16904,0.09169,9.16904,0,0,0,0,0,0,28.61,-80.6,9.79218,90.98138,0,0,0,46599.34298,26999.1939,53.46214,0.10656,NaN,245.24899,NaN,0.01573,1542087.278,29.0376,0,0.54762,-0.00001,0.46436,0.04056,0.0427,NaN,NaN,NaN,NaN,NaN,NaN,NaN,NaN,0.00001,15.24,182.41469,90,0,5.35263,15,1013.25,340.3889,0.01,0.00488
0.04,-0.00045,-0.09093,-9.09325,0.09093,9.09325,0,0,0,0,0,0,28.61,-80.6,9.79218,90.94996,0,0,0,46599.07429,26998.9252,53.46194,0.10656,NaN,245.24865,NaN,0.01611,1579916.647,32.5692,0,0.54548,-0.00001,0.46222,0.04056,0.0427,NaN,NaN,NaN,NaN,NaN,NaN,NaN,NaN,0.00001,15.24,182.41469,90,0,5.48399,15,1013.25,340.3889,0.01,0.0057
0.05,-0.00045,-0.09017,-9.01746,0.09017,9.01746,0,0,0,0,0,0,28.61,-80.6,9.79218,90.92001,0,0,0,46598.80559,26998.65651,53.46174,0.10656,NaN,245.24831,NaN,0.0165,1617746.469,36.1008,0,0.54342,-0.00001,0.46015,0.04056,0.0427,NaN,NaN,NaN,NaN,NaN,NaN,NaN,NaN,0.00001,15.24,182.41469,90,0,5.61534,15,1013.25,340.3889,0.01,0.00692
0.06,-0.00045,-0.08942,-8.94167,0.08942,8.94167,0,0,0,0,0,0,28.61,-80.6,9.79218,90.92322,0,0,0,46598.53689,26998.38781,53.46154,0.10656,NaN,245.24797,NaN,0.0163,1598577.717,39.6324,0,0.54446,-0.00001,0.46119,0.04056,0.0427,NaN,NaN,NaN,NaN,NaN,NaN,NaN,NaN,0.00001,15.24,182.41469,90,0,5.5488,15,1013.25,340.3889,0.01,0.0081
0.07,-0.00044,-0.08866,-8.86588,0.08866,8.86588,0,0,0,0,0,0,28.61,-80.6,9.79218,90.9265,0,0,0,46598.26819,26998.11911,53.46133,0.10656,NaN,245.24763,NaN,0.01611,1579408.969,43.164,0,0.54551,-0.00001,0.46225,0.04056,0.0427,NaN,NaN,NaN,NaN,NaN,NaN,NaN,NaN,0.00001,15.24,182.41469,90,0,5.48226,15,1013.25,340.3889,0.01,0.00926
0.08,-0.00044,-0.0879,-8.79008,0.0879,8.79008,0,0,0,0,0,0,28.61,-80.6,9.79218,90.92987,0,0,0,46597.99949,26997.85041,53.46113,0.10656,NaN,245.24729,NaN,0.01591,1560240.227,46.6956,0,0.54658,-0.00001,0.46332,0.04056,0.0427,NaN,NaN,NaN,NaN,NaN,NaN,NaN,NaN,0.00001,15.24,182.41469,90,0,5.41572,15,1013.25,340.3889,0.01,0.01062
0.09,-0.00044,-0.08714,-8.71429,0.08714,8.71429,0,0,0,0,0,0,28.61,-80.6,9.79218,90.93332,0,0,0,46597.73079,26997.58171,53.46093,0.10656,NaN,245.24695,NaN,0.01572,1541071.49,50.2272,0,0.54767,-0.00001,0.46442,0.04056,0.0427,NaN,NaN,NaN,NaN,NaN,NaN,NaN,NaN,0.00001,15.24,182.41469,90,0,5.34918,15,1013.25,340.3889,0.01,0.01189
0.1,-0.00043,-0.08638,-8.63849,0.08638,8.63849,0,0,0,0,0,0,28.61,-80.6,9.79218,90.93685,0,0,0,46597.46209,26997.31301,53.46073,0.10656,NaN,245.24661,NaN,0.01552,1521902.759,53.7588,0,0.54878,-0.00001,0.46552,0.04056,0.0427,NaN,NaN,NaN,NaN,NaN,NaN,NaN,NaN,0.00001,15.24,182.41469,90,0,5.28264,15,1013.25,340.3889,0.01,0.01328
0.11,-0.00039,-0.07872,-7.87179,0.07872,7.87179,0,0,0,0,0,0,28.61,-80.6,9.79218,90.89218,0,0,0,46594.61047,26994.46139,53.45859,0.10656,NaN,245.24301,NaN,0.01485,1456264.356,89.4797,0,0.55271,-0.00001,0.46946,0.04055,0.0427,NaN,NaN,NaN,NaN,NaN,NaN,NaN,NaN,0.00001,15.24,182.41469,90,0,5.05486,15,1013.25,340.3889,0.01,0.0146
0.12,-0.00032,-0.06414,-6.41411,0.06414,6.41411,0,0,0,0,0,0,28.61,-80.6,9.79218,90.7613,0,0,0,46591.75886,26991.60977,53.45645,0.10655,NaN,245.23941,NaN,0.01418,1390599.051,157.38991,0,0.55688,0,0.47363,0.04055,0.0427,NaN,NaN,NaN,NaN,NaN,NaN,NaN,NaN,0.00001,15.24,182.41469,90,0,4.82709,15,1013.25,340.3889,0.01,0.01596
0.13,-0.00025,-0.04956,-4.95626,0.04956,4.95626,0,0,0,0,0,0,28.61,-80.6,9.79218,90.61742,0,0,0,46588.90724,26988.75816,53.45431,0.10655,NaN,245.23581,NaN,0.01351,1324941.717,225.30011,0,0.56131,0,0.47806,0.04055,0.0427,NaN,NaN,NaN,NaN,NaN,NaN,NaN,NaN,0.00001,15.24,182.41469,90,0,4.59932,15,1013.25,340.3889,0.01,0.01715
0.14,-0.00017,-0.03498,-3.49823,0.03498,3.49823,0,0,0,0,0,0,28.61,-80.6,9.79218,90.45851,0,0,0,46586.05562,26985.90654,53.45217,0.10655,NaN,245.2322,NaN,0.01284,1259293.605,293.21032,0,0.56603,0,0.48278,0.04055,0.0427,NaN,NaN,NaN,NaN,NaN,NaN,NaN,NaN,0,15.24,182.41469,90,0,4.37155,15,1013.25,340.3889,0.01,0.01821
0.15,-0.0001,-0.0204,-2.04002,0.0204,2.04002,0,0,0,0,0,0,28.61,-80.6,9.79218,90.2821,0,0,0,46583.204,26983.05492,53.45003,0.10654,NaN,245.2286,NaN,0.01217,1193656.242,361.12053,0,0.57108,0,0.48784,0.04055,0.0427,NaN,NaN,NaN,NaN,NaN,NaN,NaN,NaN,0,15.24,182.41469,90,0,4.14377,15,1013.25,340.3889,0.01,0.01962
0.16,-0.00003,-0.00582,-0.58163,0.00582,0.58163,0,0,0,0,0,0,28.61,-80.6,9.79218,90.07979,0,0,0,46580.35238,26980.2033,53.44789,0.10654,NaN,245.225,NaN,0.01228,1203742.631,429.03073,0,0.57028,0,0.48704,0.04055,0.0427,NaN,NaN,NaN,NaN,NaN,NaN,NaN,NaN,0,15.24,182.41469,90,0,4.17883,15,1013.25,340.3889,0.01,0.02092
0.17,0.00004,0.00877,0.87694,0.00877,0.87694,0,0,0,0,0,0,28.61,-80.6,9.79218,89.88081,0,0,0,46577.50076,26977.35168,53.44575,0.10654,NaN,245.22139,NaN,0.01238,1213843.776,496.94094,0,0.56949,0,0.48624,0.04055,0.0427,NaN,NaN,NaN,NaN,NaN,NaN,NaN,NaN,0,15.24,182.41469,90,0,4.2139,15,1013.24999,340.3889,0.01,0.02245
0.18,0.00025,0.03212,2.33569,0.03212,2.33569,0,0,0,0,0,0,28.61,-80.6,9.79218,89.56689,0,0,0,46574.64914,26974.50006,53.44361,0.10653,NaN,245.21779,NaN,0.01248,1223975.79,564.85114,0,0.56871,0,0.48546,0.04055,0.0427,NaN,NaN,NaN,NaN,NaN,NaN,NaN,NaN,0,15.24,182.41469,90,0,4.24896,15,1013.24997,340.3889,0.01,0.02329
0.19,0.00076,0.07006,3.79462,0.07006,3.79462,0,0,0,0,0,0,28.61,-80.6,9.79218,89.06306,0,0,0,46571.79753,26971.64844,53.44147,0.10653,NaN,245.21418,NaN,0.01259,1234205.478,632.76135,0,0.56792,0.00001,0.48467,0.04055,0.0427,NaN,NaN,NaN,NaN,NaN,NaN,NaN,NaN,0.00001,15.24,182.41469,90,0,4.28402,15,1013.24991,340.3889,0.01,0.02457
0.2,0.00172,0.12259,5.25372,0.12259,5.25372,0,0,0,0,0,0,28.61,-80.6,9.79218,88.37414,0,0,0,46568.94591,26968.79683,53.43933,0.10653,NaN,245.21057,NaN,0.01269,1244641.142,700.67156,0.00001,0.56713,0.00003,0.48388,0.04055,0.0427,NaN,NaN,NaN,NaN,NaN,NaN,NaN,NaN,0.00002,15.24,182.41469,90,0,4.31908,14.99999,1013.2498,340.38889,0.01,0.02606
0.21,0.00329,0.19165,6.90702,0.19165,6.90702,0,0,0,0,0,0,28.61,-80.6,9.79218,87.53175,0,0,0,46561.43341,26961.28433,53.43369,0.10652,NaN,245.20107,NaN,0.01307,1281894.222,777.53855,0.00002,0.56437,0.00011,0.48112,0.04055,0.0427,NaN,NaN,NaN,NaN,NaN,NaN,NaN,NaN,0.00002,15.24,182.41469,90,0,4.44602,14.99998,1013.24961,340.38889,0.01,0.027
0.22,0.00566,0.28121,8.95814,0.28121,8.95814,0,0,0,0,0,0,28.61,-80.6,9.79218,86.48103,0,0,0,46552.75569,26952.60661,53.42717,0.10651,NaN,245.19009,NaN,0.01346,1319758.078,872.87894,0.00007,0.56167,0.00032,0.47842,0.04055,0.0427,NaN,NaN,NaN,NaN,NaN,NaN,NaN,NaN,0.00004,15.24,182.41469,90,0,4.57295,14.99996,1013.24934,340.38888,0.01,0.02769
0.23,0.00902,0.39141,11.02205,0.39141,11.02205,0,0,0,0,0,0,28.61,-80.6,9.79218,85.2393,0,0,0,46544.07797,26943.92889,53.42065,0.1065,NaN,245.17911,NaN,0.01386,1358521.258,968.77912,0.00019,0.55901,0.00077,0.47576,0.04055,0.0427,NaN,NaN,NaN,NaN,NaN,NaN,NaN,NaN,0.00005,15.24,182.41469,90,0,4.69989,14.99994,1013.24894,340.38886,0.01,0.02834
0.24,0.01359,0.52226,13.08672,0.52226,13.08672,0,0,0,0,0,0,28.61,-80.6,9.79218,83.82465,0,0,0,46535.40025,26935.25117,53.41413,0.10649,NaN,245.16812,NaN,0.01426,1398514.029,1064.6793,0.00043,0.55637,0.00164,0.47311,0.04055,0.0427,NaN,NaN,NaN,NaN,NaN,NaN,NaN,NaN,0.00007,15.24,182.41469,90,0,4.82683,14.99991,1013.24841,340.38885,0.01,0.02911
0.25,0.01957,0.67376,15.15217,0.67376,15.15217,0,0,0,0,0,0,28.61,-80.6,9.79218,82.25476,0,0,0,46526.72253,26926.57345,53.40762,0.10648,NaN,245.15713,NaN,0.01469,1440101.181,1160.57948,0.00088,0.55372,0.00317,0.47046,0.04055,0.0427,NaN,NaN,NaN,NaN,NaN,NaN,NaN,NaN,0.00009,15.24,182.41469,90,0,4.95376,14.99987,1013.2477,340.38882,0.01,0.0299
0.26,0.02717,0.84592,17.21837,0.84592,17.21837,0,0,0,0,0,0,28.61,-80.6,9.79218,79.93856,0,0,0,46518.04481,26917.89573,53.40109,0.10647,NaN,245.14614,NaN,0.01422,1394767.905,1256.47966,0.00178,0.55661,0.00679,0.47336,0.04055,0.0427,NaN,NaN,NaN,NaN,NaN,NaN,NaN,NaN,0.00011,15.24,182.41469,90,0,4.76753,14.99982,1013.24681,340.38879,0.01,0.03065
0.27,0.03659,1.03874,19.28533,1.03874,19.28533,0,0,0,0,0,0,28.61,-80.6,9.79218,77.22501,0,0,0,46509.36709,26909.21801,53.39457,0.10646,NaN,245.13514,NaN,0.0138,1353168.434,1352.37985,0.00334,0.55937,0.01354,0.47612,0.04055,0.0427,NaN,NaN,NaN,NaN,NaN,NaN,NaN,NaN,0.00013,15.24,182.41469,90,0,4.5813,14.99976,1013.24571,340.38876,0.01,0.03137
0.28,0.04805,1.25225,21.35304,1.25225,21.35304,0,0,0,0,0,0,28.61,-80.6,9.79218,74.09668,0,0,0,46500.68937,26900.54029,53.38805,0.10645,NaN,245.12413,NaN,0.01343,1316411.397,1448.28003,0.0059,0.56191,0.02527,0.47866,0.04055,0.0427,NaN,NaN,NaN,NaN,NaN,NaN,NaN,NaN,0.00016,15.24,182.41469,90,0,4.39507,14.99969,1013.24437,340.38871,0.01,0.03196
0.29,0.06174,1.48643,23.42149,1.48643,23.42149,0,0,0,0,0,0,28.61,-80.6,9.79218,70.5484,0,0,0,46492.01165,26891.86257,53.38153,0.10643,NaN,245.11313,NaN,0.01311,1285768.021,1544.18021,0.00988,0.56409,0.0444,0.48084,0.04055,0.0427,NaN,NaN,NaN,NaN,NaN,NaN,NaN,NaN,0.00019,15.24,182.41469,90,0,4.20884,14.9996,1013.24276,340.38866,0.01,0.03262
0.3,0.07788,1.7413,25.49067,1.7413,25.49067,0,0,0,0,0,0,28.61,-80.6,9.79218,66.59324,0,0,0,46483.33393,26883.18485,53.375,0.10642,NaN,245.10211,NaN,0.01288,1262639.92,1640.08039,0.01581,0.56578,0.07366,0.48254,0.04055,0.0427,NaN,NaN,NaN,NaN,NaN,NaN,NaN,NaN,0.00022,15.24,182.41469,90,0,4.02261,14.99949,1013.24087,340.38859,0.01,0.03324
0.31,0.09664,2.01022,26.89658,2.01022,26.89658,0,0,0,0,0,0,28.61,-80.6,9.79218,64.1152,0,0,0,46470.9937,26870.84462,53.36572,0.10641,NaN,245.08645,NaN,0.01353,1326391.108,1704.98583,0.02262,0.56121,0.09551,0.47796,0.04055,0.0427,NaN,NaN,NaN,NaN,NaN,NaN,NaN,NaN,0.00026,15.24,182.41469,90,0,4.14268,14.99937,1013.23867,340.38852,0.01,0.03382
0.32,0.1181,2.28349,27.33164,2.28349,27.33164,0,0,0,0,0,0,28.61,-80.6,9.79218,61.82276,0,0,0,46458.24651,26858.09743,53.35613,0.10639,NaN,245.07025,NaN,0.01421,1392984.509,1724.73842,0.03091,0.55673,0.11829,0.47347,0.04055,0.0427,NaN,NaN,NaN,NaN,NaN,NaN,NaN,NaN,0.00029,15.24,182.41469,90,0,4.26275,14.99923,1013.23615,340.38843,0.01,0.03441
0.33,0.14233,2.56102,27.75867,2.56102,27.75867,0,0,0,0,0,0,28.61,-80.6,9.79218,59.70087,0,0,0,46445.49933,26845.35025,53.34654,0.10638,NaN,245.05405,NaN,0.01491,1462222.241,1744.10836,0.04072,0.55235,0.14144,0.46909,0.04055,0.0427,NaN,NaN,NaN,NaN,NaN,NaN,NaN,NaN,0.00033,15.24,182.41469,90,0,4.38282,14.99907,1013.23331,340.38834,0.01,0.035
0.34,0.16935,2.84283,28.18589,2.84283,28.18589,0,0,0,0,0,0,28.61,-80.6,9.79218,57.73434,0,0,0,46432.75215,26832.60306,53.33694,0.10636,NaN,245.03784,NaN,0.01564,1533938.767,1763.4783,0.05212,0.54808,0.16452,0.46483,0.04056,0.0427,NaN,NaN,NaN,NaN,NaN,NaN,NaN,NaN,0.00036,15.24,182.41469,90,0,4.50289,14.9989,1013.23014,340.38823,0.01,0.03554
0.35,0.1992,3.12891,28.61331,3.12891,28.61331,0,0,0,0,0,0,28.61,-80.6,9.79218,55.90904,0,0,0,46420.00496,26819.85588,53.32735,0.10635,NaN,245.02162,NaN,0.0164,1607988.955,1782.84824,0.06517,0.54394,0.18718,0.46068,0.04056,0.0427,NaN,NaN,NaN,NaN,NaN,NaN,NaN,NaN,0.0004,15.24,182.41469,90,0,4.62296,14.99871,1013.22664,340.38812,0.01,0.03606
0.36,0.23194,3.41927,29.04089,3.41927,29.04089,0,0,0,0,0,0,28.61,-80.6,9.79218,52.90327,0,0,0,46407.25778,26807.1087,53.31775,0.10633,NaN,245.0054,NaN,0.01665,1632938.374,1802.21818,0.08228,0.5426,0.22915,0.45934,0.04056,0.0427,NaN,NaN,NaN,NaN,NaN,NaN,NaN,NaN,0.00044,15.24,182.41469,90,0,4.52162,14.99849,1013.2228,340.38799,0.01,0.03658
0.37,0.26761,3.71391,29.46864,3.71391,29.46864,0,0,0,0,0,0,28.61,-80.6,9.79218,49.9632,0,0,0,46394.51059,26794.36151,53.30815,0.10632,NaN,244.98916,NaN,0.01696,1663031.594,1821.58812,0.10174,0.54102,0.27321,0.45776,0.04056,0.0427,NaN,NaN,NaN,NaN,NaN,NaN,NaN,NaN,0.00048,15.24,182.41469,90,0,4.42029,14.99826,1013.21861,340.38785,0.01,0.03709
0.38,0.30624,4.01282,29.89658,4.01282,29.89658,0,0,0,0,0,0,28.61,-80.6,9.79218,47.1043,0,0,0,46381.76341,26781.61433,53.29854,0.1063,NaN,244.97291,NaN,0.01732,1698180.112,1840.95806,0.12356,0.53922,0.31818,0.45595,0.04056,0.04271,NaN,NaN,NaN,NaN,NaN,NaN,NaN,NaN,0.00051,15.24,182.41469,90,0,4.31896,14.99801,1013.21408,340.38769,0.01,0.03763
0.39,0.34789,4.31601,30.32471,4.31601,30.32471,0,0,0,0,0,0,28.61,-80.6,9.79218,44.33944,0,0,0,46369.01623,26768.86715,53.28893,0.10629,NaN,244.95666,NaN,0.01773,1738260.667,1860.32801,0.14766,0.53722,0.36292,0.45396,0.04056,0.04271,NaN,NaN,NaN,NaN,NaN,NaN,NaN,NaN,0.00055,15.24,182.41469,90,0,4.21763,14.99774,1013.2092,340.38753,0.01,0.03824
0.4,0.39259,4.62349,30.75302,4.62349,30.75302,0,0,0,0,0,0,28.61,-80.6,9.79218,41.67866,0,0,0,46356.26904,26756.11996,53.27933,0.10627,NaN,244.9404,NaN,0.01819,1783122.108,1879.69795,0.17397,0.53505,0.40634,0.45179,0.04056,0.04271,NaN,NaN,NaN,NaN,NaN,NaN,NaN,NaN,0.00059,15.24,182.41469,90,0,4.11629,14.99745,1013.20396,340.38735,0.01,0.03877
0.41,0.44037,4.93423,31.07933,4.93423,31.07933,0,0,0,0,0,0,28.61,-80.6,9.79218,40.84203,0,0,0,46343.03263,26742.88355,53.26935,0.10626,NaN,244.9235,NaN,0.01916,1878733.028,1894.30769,0.19822,0.53066,0.41706,0.44739,0.04056,0.04271,NaN,NaN,NaN,NaN,NaN,NaN,NaN,NaN,0.00063,15.24,182.41469,90,0,4.26543,14.99714,1013.19835,340.38717,0.01,0.03928
0.42,0.49127,5.24525,31.10822,5.24525,31.10822,0,0,0,0,0,0,28.61,-80.6,9.79218,40.08502,0,0,0,46329.58655,26729.43747,53.2592,0.10624,NaN,244.90633,NaN,0.02014,1974768.309,1895.12255,0.22392,0.52653,0.42642,0.44325,0.04057,0.04271,NaN,NaN,NaN,NaN,NaN,NaN,NaN,NaN,0.00067,15.24,182.41469,90,0,4.41457,14.99681,1013.19238,340.38696,0.01,0.03979
0.43,0.54528,5.55638,31.11823,5.55638,31.11823,0,0,0,0,0,0,28.61,-80.6,9.79218,39.39783,0,0,0,46316.14047,26715.99139,53.24906,0.10622,NaN,244.88914,NaN,0.02112,2071137.319,1895.0631,0.25103,0.52263,0.43459,0.43935,0.04057,0.04271,NaN,NaN,NaN,NaN,NaN,NaN,NaN,NaN,0.00071,15.24,182.41469,90,0,4.56371,14.99646,1013.18605,340.38675,0.01,0.04036
0.44,0.6024,5.86761,31.12821,5.86761,31.12821,0,0,0,0,0,0,28.61,-80.6,9.79218,38.77135,0,0,0,46302.69439,26702.54531,53.23891,0.10621,NaN,244.87195,NaN,0.02211,2167798.896,1895.00365,0.27954,0.51895,0.44176,0.43567,0.04057,0.04271,NaN,NaN,NaN,NaN,NaN,NaN,NaN,NaN,0.00075,15.24,182.41469,90,0,4.71285,14.99608,1013.17935,340.38653,0.01,0.04093
0.45,0.66263,6.17893,31.13817,6.17893,31.13817,0,0,0,0,0,0,28.61,-80.6,9.79218,38.19798,0,0,0,46289.24831,26689.09923,53.22876,0.10619,NaN,244.85474,NaN,0.0231,2264718.699,1894.94419,0.30944,0.51547,0.44805,0.43218,0.04057,0.04272,NaN,NaN,NaN,NaN,NaN,NaN,NaN,NaN,0.00079,15.24,182.41469,90,0,4.86199,14.99569,1013.17228,340.38629,0.01,0.04146
0.46,0.72598,6.49036,31.148,6.49036,31.148,0,0,0,0,0,0,28.61,-80.6,9.79218,36.31197,0,0,0,46275.80223,26675.65315,53.21861,0.10618,NaN,244.83753,NaN,0.02366,2320027.527,1894.88474,0.34526,0.51356,0.47636,0.43027,0.04058,0.04272,NaN,NaN,NaN,NaN,NaN,NaN,NaN,NaN,0.00083,15.24,182.41469,90,0,4.76973,14.99528,1013.16485,340.38604,0.01,0.04199
0.47,0.79244,6.80188,31.15781,6.80188,31.15781,0,0,0,0,0,0,28.61,-80.6,9.79218,34.51527,0,0,0,46262.35616,26662.20708,53.20846,0.10616,NaN,244.8203,NaN,0.02425,2377753.876,1894.82528,0.38238,0.51163,0.50226,0.42834,0.04058,0.04272,NaN,NaN,NaN,NaN,NaN,NaN,NaN,NaN,0.00087,15.24,182.41469,90,0,4.67747,14.99485,1013.15706,340.38578,0.01,0.0425
0.48,0.86202,7.1135,31.16761,7.1135,31.16761,0,0,0,0,0,0,28.61,-80.6,9.79217,32.80498,0,0,0,46248.91008,26648.761,53.1983,0.10614,NaN,244.80307,NaN,0.02486,2437728.895,1894.76583,0.42065,0.50969,0.52567,0.42639,0.04058,0.04272,NaN,NaN,NaN,NaN,NaN,NaN,NaN,NaN,0.00091,15.24,182.41469,90,0,4.58521,14.9944,1013.1489,340.3855,0.01,0.04305
0.49,0.93471,7.42522,31.17738,7.42522,31.17738,0,0,0,0,0,0,28.61,-80.6,9.79217,31.17788,0,0,0,46235.464,26635.31492,53.18814,0.10613,NaN,244.78582,NaN,0.0255,2499793.545,1894.70637,0.45991,0.50775,0.54655,0.42444,0.04058,0.04272,NaN,NaN,NaN,NaN,NaN,NaN,NaN,NaN,0.00095,15.24,182.41469,90,0,4.49295,14.99392,1013.14037,340.38522,0.01,0.04369
0.5,1.01052,7.73703,31.18715,7.73703,31.18715,0,0,0,0,0,0,28.61,-80.6,9.79217,29.6305,0,0,0,46222.01792,26621.86884,53.17797,0.10611,NaN,244.76857,NaN,0.02615,2563798.801,1894.64692,0.50002,0.5058,0.56492,0.4225,0.04058,0.04272,NaN,NaN,NaN,NaN,NaN,NaN,NaN,NaN,0.00099,15.24,182.41469,90,0,4.4007,14.99343,1013.13148,340.38492,0.01,0.04427
0.51,1.08945,8.04899,31.20146,8.04899,31.20146,0,0,0,0,0,0,28.61,-80.6,9.79217,28.23008,0,0,0,46208.55625,26608.40717,53.1678,0.10609,NaN,244.75128,NaN,0.02684,2631363.854,1894.7973,0.54073,0.50382,0.57994,0.42051,0.04059,0.04272,NaN,NaN,NaN,NaN,NaN,NaN,NaN,NaN,0.00103,15.24,182.41469,90,0,4.32127,14.99292,1013.12223,340.38461,0.01,0.04487
0.52,1.1715,8.36119,31.22514,8.36119,31.22514,0,0,0,0,0,0,28.61,-80.6,9.79217,26.89988,0,0,0,46195.09068,26594.94159,53.15761,0.10608,NaN,244.73398,NaN,0.02754,2700481.082,1895.38048,0.58212,0.50186,0.59278,0.41854,0.04059,0.04273,NaN,NaN,NaN,NaN,NaN,NaN,NaN,NaN,0.00107,15.24,182.41469,90,0,4.24185,14.99239,1013.1126,340.38429,0.01,0.04547
0.53,1.25668,8.67362,31.2491,8.67362,31.2491,0,0,0,0,0,0,28.61,-80.6,9.79217,25.63612,0,0,0,46181.6251,26581.47602,53.14743,0.10606,NaN,244.71667,NaN,0.02826,2771041.506,1895.97678,0.62407,0.49992,0.60354,0.4166,0.04059,0.04273,NaN,NaN,NaN,NaN,NaN,NaN,NaN,NaN,0.00111,15.24,182.41469,90,0,4.16243,14.99183,1013.10261,340.38395,0.01,0.04605
0.54,1.34498,8.9863,31.27307,8.9863,31.27307,0,0,0,0,0,0,28.61,-80.6,9.79217,24.4351,0,0,0,46168.15953,26568.01045,53.13724,0.10605,NaN,244.69935,NaN,0.029,2842944.017,1896.57307,0.66649,0.498,0.61237,0.41468,0.04059,0.04273,NaN,NaN,NaN,NaN,NaN,NaN,NaN,NaN,0.00115,15.24,182.41469,90,0,4.08301,14.99126,1013.09226,340.3836,0.01,0.04675
0.55,1.4364,9.29922,31.29704,9.29922,31.29704,0,0,0,0,0,0,28.61,-80.6,9.79217,23.29329,0,0,0,46154.69396,26554.54488,53.12705,0.10603,NaN,244.68202,NaN,0.02974,2916095.531,1897.16936,0.70928,0.49612,0.61939,0.41279,0.0406,0.04273,NaN,NaN,NaN,NaN,NaN,NaN,NaN,NaN,0.00119,15.24,182.41469,90,0,4.00358,14.99066,1013.08153,340.38324,0.01,0.04745
0.56,1.53096,9.61237,31.32116,9.61237,31.32116,0,0,0,0,0,0,28.61,-80.6,9.79217,20.08386,0,0,0,46141.22839,26541.07931,53.11685,0.10601,NaN,244.66468,NaN,0.03007,2947844.855,1897.76566,0.74588,0.49532,0.6374,0.41199,0.0406,0.04273,NaN,NaN,NaN,NaN,NaN,NaN,NaN,NaN,0.00123,15.24,182.41469,90,0,3.51456,14.99005,1013.07044,340.38287,0.01,0.04802
0.57,1.62865,9.92577,31.3455,9.92577,31.3455,0,0,0,0,0,0,28.61,-80.6,9.79217,16.95205,0,0,0,46127.76282,26527.61374,53.10665,0.106,NaN,244.64733,NaN,0.03049,2988695.877,1898.36195,0.77295,0.49431,0.6426,0.41097,0.0406,0.04273,NaN,NaN,NaN,NaN,NaN,NaN,NaN,NaN,0.00127,15.24,182.41469,90,0,3.02553,14.98941,1013.05899,340.38248,0.01,0.04881
0.58,1.72948,10.23941,31.37028,10.23941,31.37028,0,0,0,0,0,0,28.61,-80.6,9.79217,13.91321,0,0,0,46114.29725,26514.14817,53.09645,0.10598,NaN,244.62997,NaN,0.03099,3038288.056,1898.95825,0.78089,0.4931,0.62817,0.40977,0.0406,0.04274,NaN,NaN,NaN,NaN,NaN,NaN,NaN,NaN,0.00131,15.24,182.41469,90,0,2.5365,14.98876,1013.04716,340.38209,0.01,0.04942
0.59,1.83344,10.5533,31.39546,10.5533,31.39546,0,0,0,0,0,0,28.61,-80.6,9.79217,10.97971,0,0,0,46100.83168,26500.6826,53.08625,0.10596,NaN,244.6126,NaN,0.03158,3096208.506,1899.55454,0.77051,0.49173,0.59684,0.40839,0.0406,0.04274,NaN,NaN,NaN,NaN,NaN,NaN,NaN,NaN,0.00135,15.24,182.41469,90,0,2.04748,14.98808,1013.03497,340.38168,0.01,0.04999
0.6,1.94054,10.86745,31.42081,10.86745,31.42081,0,0,0,0,0,0,28.61,-80.6,9.79217,8.16088,0,0,0,46087.36611,26487.21703,53.07605,0.10595,NaN,244.59522,NaN,0.03225,3162006.031,1900.15084,0.7531,0.4902,0.55933,0.40686,0.04061,0.04274,NaN,NaN,NaN,NaN,NaN,NaN,NaN,NaN,0.00139,15.24,182.41469,90,0,1.55845,14.98739,1013.02241,340.38126,0.01,0.05054
0.61,2.05079,11.18178,31.4388,11.18178,31.4388,0,0,0,0,0,0,28.61,-80.6,9.79217,8.28048,0,0,0,46073.90764,26473.75856,53.06584,0.10593,NaN,244.57784,NaN,0.0332,3254418.878,1900.46857,0.7966,0.48813,0.55851,0.40477,0.04061,0.04274,NaN,NaN,NaN,NaN,NaN,NaN,NaN,NaN,0.00143,15.24,182.41469,90,0,1.62735,14.98667,1013.00948,340.38082,0.01,0.05107
0.62,2.16418,11.49605,31.43191,11.49605,31.43191,0,0,0,0,0,0,28.61,-80.6,9.79217,8.39352,0,0,0,46060.45391,26460.30482,53.05564,0.10592,NaN,244.56045,NaN,0.03414,3346823.186,1899.6411,0.84122,0.48613,0.55767,0.40277,0.04061,0.04275,NaN,NaN,NaN,NaN,NaN,NaN,NaN,NaN,0.00147,15.24,182.41469,90,0,1.69626,14.98593,1012.99618,340.38038,0.01,0.05162
0.63,2.28071,11.81021,31.4223,11.81021,31.4223,0,0,0,0,0,0,28.61,-80.6,9.79217,8.50055,0,0,0,46047.00017,26446.85109,53.04543,0.1059,NaN,244.54306,NaN,0.03508,3439210.098,1898.68983,0.88697,0.48419,0.55683,0.40083,0.04062,0.04275,NaN,NaN,NaN,NaN,NaN,NaN,NaN,NaN,0.00151,15.24,182.41469,90,0,1.76516,14.98518,1012.98251,340.37992,0.01,0.05216
0.64,2.40038,12.12429,31.41267,12.12429,31.41267,0,0,0,0,0,0,28.61,-80.6,9.79217,8.60205,0,0,0,46033.54643,26433.39735,53.03523,0.10588,NaN,244.52565,NaN,0.03603,3531578.518,1897.73855,0.93383,0.48233,0.55598,0.39896,0.04062,0.04275,NaN,NaN,NaN,NaN,NaN,NaN,NaN,NaN,0.00155,15.24,182.41469,90,0,1.83407,14.9844,1012.96848,340.37944,0.01,0.0527
0.65,2.5232,12.43826,31.403,12.43826,31.403,0,0,0,0,0,0,28.61,-80.6,9.79217,8.69844,0,0,0,46020.0927,26419.94362,53.02502,0.10587,NaN,244.50824,NaN,0.03697,3623927.446,1896.78728,0.9818,0.48052,0.55513,0.39714,0.04063,0.04275,NaN,NaN,NaN,NaN,NaN,NaN,NaN,NaN,0.00159,15.24,182.41469,90,0,1.90297,14.9836,1012.95407,340.37896,0.01,0.05326
0.66,2.64915,12.75214,31.39356,12.75214,31.39356,0,0,0,0,0,0,28.61,-80.6,9.79217,8.34113,0,0,0,46006.63896,26406.48988,53.0148,0.10585,NaN,244.49081,NaN,0.03787,3711872.716,1895.83601,1.01882,0.47921,0.54908,0.39583,0.04063,0.04276,NaN,NaN,NaN,NaN,NaN,NaN,NaN,NaN,0.00163,15.24,182.41469,90,0,1.86969,14.98278,1012.9393,340.37847,0.01,0.05381
0.67,2.77824,13.06593,31.38405,13.06593,31.38405,0,0,0,0,0,0,28.61,-80.6,9.79217,8.00044,0,0,0,45993.18522,26393.03614,53.00459,0.10584,NaN,244.47337,NaN,0.03876,3799926.025,1894.88474,1.05936,0.47922,0.54477,0.39582,0.04063,0.04276,NaN,NaN,NaN,NaN,NaN,NaN,NaN,NaN,0.00167,15.24,182.41469,90,0,1.8364,14.98194,1012.92416,340.37796,0.01,0.05433
0.68,2.91047,13.37961,31.37451,13.37961,31.37451,0,0,0,0,0,0,28.61,-80.6,9.79217,7.67525,0,0,0,45979.73149,26379.58241,52.99437,0.10582,NaN,244.45593,NaN,0.03966,3888077.77,1893.93346,1.10076,0.47922,0.54068,0.39582,0.04064,0.04276,NaN,NaN,NaN,NaN,NaN,NaN,NaN,NaN,0.00171,15.24,182.41469,90,0,1.80311,14.98108,1012.90865,340.37744,0.01,0.05484
0.69,3.04583,13.69321,31.36494,13.69321,31.36494,0,0,0,0,0,0,28.61,-80.6,9.79217,7.36454,0,0,0,45966.27775,26366.12867,52.98415,0.1058,NaN,244.43847,NaN,0.04056,3976319.213,1892.98219,1.14303,0.47923,0.5368,0.39582,0.04064,0.04277,NaN,NaN,NaN,NaN,NaN,NaN,NaN,NaN,0.00175,15.24,182.41469,90,0,1.76982,14.9802,1012.89278,340.3769,0.01,0.05536
0.7,3.18433,14.00671,31.35535,14.00671,31.35535,0,0,0,0,0,0,28.61,-80.6,9.79217,7.06739,0,0,0,45952.82401,26352.67493,52.97392,0.10579,NaN,244.421,NaN,0.04147,4064642.364,1892.03092,1.1862,0.47923,0.53312,0.39582,0.04065,0.04277,NaN,NaN,NaN,NaN,NaN,NaN,NaN,NaN,0.00179,15.24,182.41469,90,0,1.73653,14.9793,1012.87653,340.37636,0.01,0.05589
0.71,3.32596,14.32013,31.34742,14.32013,31.34742,0,0,0,0,0,0,28.61,-80.6,9.79217,6.88206,0,0,0,45939.40926,26339.26018,52.96372,0.10577,NaN,244.40358,NaN,0.04238,4153905.98,1891.1619,1.23361,0.47924,0.53085,0.39581,0.04065,0.04277,NaN,NaN,NaN,NaN,NaN,NaN,NaN,NaN,0.00183,15.24,182.41469,90,0,1.72838,14.97838,1012.85992,340.3758,0.01,0.05643
0.72,3.47073,14.63352,31.34464,14.63352,31.34464,0,0,0,0,0,0,28.61,-80.6,9.79217,6.70455,0,0,0,45926.01121,26325.86213,52.95354,0.10576,NaN,244.38616,NaN,0.04329,4243200.377,1890.53126,1.282,0.47924,0.52869,0.39581,0.04066,0.04278,NaN,NaN,NaN,NaN,NaN,NaN,NaN,NaN,0.00187,15.24,182.41469,90,0,1.72022,14.97744,1012.84294,340.37523,0.01,0.05698
0.73,3.61863,14.94688,31.34216,14.94688,31.34216,0,0,0,0,0,0,28.61,-80.6,9.79217,6.53438,0,0,0,45912.61316,26312.46408,52.94334,0.10574,NaN,244.36873,NaN,0.0442,4332523.797,1889.91574,1.33138,0.47925,0.52665,0.39581,0.04066,0.04278,NaN,NaN,NaN,NaN,NaN,NaN,NaN,NaN,0.00191,15.24,182.41469,90,0,1.71207,14.97648,1012.82559,340.37465,0.01,0.05751
0.74,3.76967,15.26023,31.33966,15.26023,31.33966,0,0,0,0,0,0,28.61,-80.6,9.79217,6.37109,0,0,0,45899.21512,26299.06604,52.93315,0.10572,NaN,244.3513,NaN,0.04511,4421873.729,1889.30021,1.38175,0.47926,0.5247,0.3958,0.04067,0.04279,NaN,NaN,NaN,NaN,NaN,NaN,NaN,NaN,0.00195,15.24,182.41469,90,0,1.70391,14.9755,1012.80788,340.37405,0.01,0.05804
0.75,3.92384,15.57354,31.33713,15.57354,31.33713,0,0,0,0,0,0,28.61,-80.6,9.79217,6.21429,0,0,0,45885.81707,26285.66799,52.92295,0.10571,NaN,244.33385,NaN,0.04602,4511247.853,1888.68468,1.43311,0.47926,0.52285,0.3958,0.04067,0.04279,NaN,NaN,NaN,NaN,NaN,NaN,NaN,NaN,0.00199,15.24,182.41469,90,0,1.69576,14.9745,1012.7898,340.37344,0.01,0.05856
0.76,4.08114,15.88684,31.33477,15.88684,31.33477,0,0,0,0,0,0,28.61,-80.6,9.79217,5.84459,0,0,0,45872.41902,26272.26994,52.91276,0.10569,NaN,244.3164,NaN,0.04692,4598810.656,1888.06915,1.47709,0.47927,0.51857,0.3958,0.04068,0.04279,NaN,NaN,NaN,NaN,NaN,NaN,NaN,NaN,0.00203,15.24,182.41469,90,0,1.62622,14.97347,1012.77135,340.37282,0.01,0.05909
0.77,4.24157,16.2001,31.33238,16.2001,31.33238,0,0,0,0,0,0,28.61,-80.6,9.79216,5.48874,0,0,0,45859.02097,26258.87189,52.90255,0.10567,NaN,244.29893,NaN,0.04781,4686547.759,1887.45362,1.52215,0.47927,0.51456,0.39579,0.04068,0.0428,NaN,NaN,NaN,NaN,NaN,NaN,NaN,NaN,0.00207,15.24,182.41469,90,0,1.55668,14.97243,1012.75253,340.37219,0.01,0.05963
0.78,4.40514,16.51335,31.32997,16.51335,31.32997,0,0,0,0,0,0,28.61,-80.6,9.79216,5.146,0,0,0,45845.62293,26245.47384,52.89235,0.10566,NaN,244.28145,NaN,0.04871,4774448.84,1886.83809,1.56834,0.47928,0.51083,0.39579,0.04069,0.0428,NaN,NaN,NaN,NaN,NaN,NaN,NaN,NaN,0.00211,15.24,182.41469,90,0,1.48714,14.97137,1012.73335,340.37155,0.01,0.06027
0.79,4.57184,16.82657,31.32753,16.82657,31.32753,0,0,0,0,0,0,28.61,-80.6,9.79216,4.81567,0,0,0,45832.22488,26232.0758,52.88214,0.10564,NaN,244.26397,NaN,0.04961,4862504.295,1886.22256,1.6157,0.47929,0.50736,0.39579,0.04069,0.04281,NaN,NaN,NaN,NaN,NaN,NaN,NaN,NaN,0.00215,15.24,182.41469,90,0,1.4176,14.97028,1012.7138,340.37089,0.01,0.06085
0.8,4.74167,17.13977,31.32506,17.13977,31.32506,0,0,0,0,0,0,28.61,-80.6,9.79216,4.49713,0,0,0,45818.82683,26218.67775,52.87193,0.10563,NaN,244.24647,NaN,0.05051,4950705.176,1885.60703,1.66428,0.47929,0.50415,0.39578,0.0407,0.04281,NaN,NaN,NaN,NaN,NaN,NaN,NaN,NaN,0.00219,15.24,182.41469,90,0,1.34806,14.96918,1012.69388,340.37022,0.01,0.06143
0.81,4.91464,17.45301,31.32973,17.45301,31.32973,0,0,0,0,0,0,28.61,-80.6,9.79216,5.29183,0,0,0,45805.39815,26205.24907,52.86169,0.10561,NaN,244.22892,NaN,0.0515,5047110.079,1885.36274,1.75811,0.4793,0.51242,0.39578,0.04071,0.04281,NaN,NaN,NaN,NaN,NaN,NaN,NaN,NaN,0.00223,15.24,182.41469,90,0,1.61656,14.96805,1012.6736,340.36954,0.01,0.06206
0.82,5.09073,17.76679,31.38295,17.76679,31.38295,0,0,0,0,0,0,28.61,-80.6,9.79216,6.0564,0,0,0,45791.93885,26191.78977,52.85143,0.10559,NaN,244.21133,NaN,0.05249,5144598.242,1887.3459,1.85747,0.47931,0.52105,0.39577,0.04071,0.04282,NaN,NaN,NaN,NaN,NaN,NaN,NaN,NaN,0.00227,15.24,182.41469,90,0,1.88505,14.96691,1012.65294,340.36885,0.01,0.06264
0.83,5.26997,18.08119,31.44421,18.08119,31.44421,0,0,0,0,0,0,28.61,-80.6,9.79216,6.79217,0,0,0,45778.47954,26178.33046,52.84117,0.10558,NaN,244.19372,NaN,0.0535,5243139.739,1889.7003,1.96184,0.47931,0.52983,0.39577,0.04072,0.04282,NaN,NaN,NaN,NaN,NaN,NaN,NaN,NaN,0.00232,15.24,182.41469,90,0,2.15354,14.96575,1012.63192,340.36814,0.01,0.06893
0.84,5.45236,18.39619,31.50541,18.39619,31.50541,0,0,0,0,0,0,28.61,-80.6,9.79216,7.5004,0,0,0,45765.02024,26164.87116,52.8309,0.10556,NaN,244.1761,NaN,0.05451,5342684.71,1892.0547,2.07074,0.47932,0.53859,0.39577,0.04073,0.04283,NaN,NaN,NaN,NaN,NaN,NaN,NaN,NaN,0.00236,15.24,182.41469,90,0,2.42204,14.96456,1012.61053,340.36742,0.01,0.06994
0.85,5.6379,18.71181,31.56655,18.71181,31.56655,0,0,0,0,0,0,28.61,-80.6,9.79216,8.18235,0,0,0,45751.56093,26151.41185,52.82063,0.10555,NaN,244.15847,NaN,0.05554,5443186.378,1894.4091,2.18375,0.47933,0.5472,0.39576,0.04073,0.04283,NaN,NaN,NaN,NaN,NaN,NaN,NaN,NaN,0.0024,15.24,182.41469,90,0,2.69053,14.96335,1012.58877,340.36669,0.01,0.07055
0.86,5.8266,19.02804,31.62871,19.02804,31.62871,0,0,0,0,0,0,28.61,-80.6,9.79216,8.07847,0,0,0,45738.10163,26137.95255,52.81035,0.10553,NaN,244.14083,NaN,0.05646,5533665.133,1896.7635,2.25158,0.47934,0.54589,0.39576,0.04074,0.04284,NaN,NaN,NaN,NaN,NaN,NaN,NaN,NaN,0.00244,15.24,182.41469,90,0,2.7008,14.96213,1012.56664,340.36595,0.01,0.07112
0.87,6.01846,19.3449,31.69088,19.3449,31.69088,0,0,0,0,0,0,28.61,-80.6,9.79216,7.97768,0,0,0,45724.64232,26124.49324,52.80008,0.10551,NaN,244.12318,NaN,0.05739,5624334.872,1899.1179,2.3206,0.47934,0.54463,0.39575,0.04075,0.04284,NaN,NaN,NaN,NaN,NaN,NaN,NaN,NaN,0.00248,15.24,182.41469,90,0,2.71106,14.96088,1012.54413,340.36519,0.01,0.07168
0.88,6.2135,19.66237,31.75307,19.66237,31.75307,0,0,0,0,0,0,28.61,-80.6,9.79216,7.87984,0,0,0,45711.18302,26111.03394,52.7898,0.1055,NaN,244.10552,NaN,0.05832,5715194.833,1901.4723,2.39081,0.47935,0.5434,0.39575,0.04075,0.04285,NaN,NaN,NaN,NaN,NaN,NaN,NaN,NaN,0.00252,15.24,182.41469,90,0,2.72133,14.95961,1012.52126,340.36443,0.01,0.07221
0.89,6.41172,19.98047,31.81526,19.98047,31.81526,0,0,0,0,0,0,28.61,-80.6,9.79216,7.78483,0,0,0,45697.72371,26097.57463,52.77951,0.10548,NaN,244.08785,NaN,0.05925,5806244.299,1903.8267,2.46222,0.47936,0.54221,0.39574,0.04076,0.04285,NaN,NaN,NaN,NaN,NaN,NaN,NaN,NaN,0.00256,15.24,182.41469,90,0,2.73159,14.95832,1012.49801,340.36364,0.01,0.07272
0.9,6.61311,20.29919,31.87747,20.29919,31.87747,0,0,0,0,0,0,28.61,-80.6,9.79216,7.69252,0,0,0,45684.2644,26084.11532,52.76923,0.10546,NaN,244.07017,NaN,0.06018,5897482.592,1906.1811,2.53483,0.47937,0.54106,0.39574,0.04077,0.04286,NaN,NaN,NaN,NaN,NaN,NaN,NaN,NaN,0.0026,15.24,182.41469,90,0,2.74186,14.95701,1012.47439,340.36285,0.01,0.07859
0.91,6.8177,20.61858,31.944,20.61858,31.944,0,0,0,0,0,0,28.61,-80.6,9.79216,7.73842,0,0,0,45670.69146,26070.54238,52.75885,0.10545,NaN,244.05233,NaN,0.06114,5990831.216,1908.73771,2.61858,0.47937,0.54164,0.39574,0.04077,0.04286,NaN,NaN,NaN,NaN,NaN,NaN,NaN,NaN,0.00264,15.24,182.41469,90,0,2.80182,14.95568,1012.4504,340.36205,0.01,0.0793
0.92,7.02549,20.9389,32.03721,20.9389,32.03721,0,0,0,0,0,0,28.61,-80.6,9.79216,7.78258,0,0,0,45657.00487,26056.85579,52.74839,0.10543,NaN,244.03433,NaN,0.06209,6084445.162,1912.50759,2.70391,0.47938,0.54221,0.39573,0.04078,0.04287,NaN,NaN,NaN,NaN,NaN,NaN,NaN,NaN,0.00268,15.24,182.41469,90,0,2.86179,14.95433,1012.42603,340.36123,0.01,0.0799
0.93,7.23649,21.2602,32.13488,21.2602,32.13488,0,0,0,0,0,0,28.61,-80.6,9.79216,7.82504,0,0,0,45643.31829,26043.16921,52.73792,0.10542,NaN,244.01632,NaN,0.06305,6178336.691,1916.47968,2.79084,0.47939,0.54275,0.39573,0.04079,0.04288,NaN,NaN,NaN,NaN,NaN,NaN,NaN,NaN,0.00272,15.24,182.41469,90,0,2.92175,14.95296,1012.40128,340.3604,0.01,0.0805
0.94,7.4507,21.58247,32.23256,21.58247,32.23256,0,0,0,0,0,0,28.61,-80.6,9.79216,7.86587,0,0,0,45629.6317,26029.48262,52.72745,0.1054,NaN,243.9983,NaN,0.06401,6272505.592,1920.45176,2.87938,0.4794,0.54328,0.39572,0.0408,0.04288,NaN,NaN,NaN,NaN,NaN,NaN,NaN,NaN,0.00276,15.24,182.41469,90,0,2.98171,14.95157,1012.37616,340.35955,0.01,0.08101
0.95,7.66814,21.90572,32.33027,21.90572,32.33027,0,0,0,0,0,0,28.61,-80.6,9.79215,7.90515,0,0,0,45615.94512,26015.79604,52.71698,0.10538,NaN,243.98027,NaN,0.06498,6366951.619,1924.42385,2.96954,0.47941,0.54378,0.39572,0.0408,0.04289,NaN,NaN,NaN,NaN,NaN,NaN,NaN,NaN,0.0028,15.24,182.41469,90,0,3.04167,14.95016,1012.35066,340.3587,0.01,0.08154
0.96,7.88882,22.22994,32.42809,22.22994,32.42809,0,0,0,0,0,0,28.61,-80.6,9.79215,7.89622,0,0,0,45602.25853,26002.10945,52.7065,0.10537,NaN,243.96222,NaN,0.06594,6460941.894,1928.39594,3.05732,0.47942,0.54368,0.39571,0.04081,0.04289,NaN,NaN,NaN,NaN,NaN,NaN,NaN,NaN,0.00285,15.24,182.41469,90,0,3.08316,14.94872,1012.32477,340.35783,0.01,0.08205
0.97,8.11274,22.55515,32.52594,22.55515,32.52594,0,0,0,0,0,0,28.61,-80.6,9.79215,7.88721,0,0,0,45588.57195,25988.42286,52.69602,0.10535,NaN,243.94417,NaN,0.0669,6555206.601,1932.36803,3.14662,0.47943,0.54358,0.39571,0.04082,0.0429,NaN,NaN,NaN,NaN,NaN,NaN,NaN,NaN,0.00289,15.24,182.41469,90,0,3.12465,14.94727,1012.29851,340.35694,0.01,0.08256
0.98,8.33993,22.88133,32.62381,22.88133,32.62381,0,0,0,0,0,0,28.61,-80.6,9.79215,7.87812,0,0,0,45574.88536,25974.73628,52.68554,0.10533,NaN,243.9261,NaN,0.06787,6649745.735,1936.34012,3.23746,0.47943,0.54347,0.3957,0.04083,0.0429,NaN,NaN,NaN,NaN,NaN,NaN,NaN,NaN,0.00293,15.24,182.41469,90,0,3.16614,14.94579,1012.27187,340.35605,0.01,0.08307
0.99,8.57037,23.2085,32.72171,23.2085,32.72171,0,0,0,0,0,0,28.61,-80.6,9.79215,7.86896,0,0,0,45561.19877,25961.04969,52.67505,0.10532,NaN,243.90803,NaN,0.06884,6744559.289,1940.31221,3.32984,0.47944,0.54337,0.3957,0.04084,0.04291,NaN,NaN,NaN,NaN,NaN,NaN,NaN,NaN,0.00297,15.24,182.41469,90,0,3.20763,14.94429,1012.24484,340.35514,0.01,0.08358
1,8.8041,23.53664,32.81963,23.53664,32.81963,0,0,0,0,0,0,28.61,-80.6,9.79215,7.85974,0,0,0,45547.51219,25947.36311,52.66456,0.1053,NaN,243.88994,NaN,0.06981,6839647.256,1944.28429,3.42377,0.47945,0.54326,0.39569,0.04085,0.04292,NaN,NaN,NaN,NaN,NaN,NaN,NaN,NaN,0.00301,15.24,182.41469,90,0,3.24912,14.94277,1012.21743,340.35422,0.01,0.08409
1.01,9.04111,23.86577,32.91922,23.86577,32.91922,0,0,0,0,0,0,28.61,-80.6,9.79215,7.37339,0,0,0,45533.73539,25933.58631,52.654,0.10528,NaN,243.87172,NaN,0.07071,6927300.261,1948.2808,3.47273,0.47946,0.53717,0.39569,0.04085,0.04292,NaN,NaN,NaN,NaN,NaN,NaN,NaN,NaN,0.00306,15.24,182.41469,90,0,3.08835,14.94123,1012.18963,340.35329,0.01,0.08459
1.02,9.28142,24.19599,33.02749,24.19599,33.02749,0,0,0,0,0,0,28.61,-80.6,9.79215,6.89894,0,0,0,45519.74808,25919.599,52.64328,0.10527,NaN,243.85321,NaN,0.07161,7015744.285,1952.66248,3.5232,0.47947,0.53131,0.39568,0.04086,0.04293,NaN,NaN,NaN,NaN,NaN,NaN,NaN,NaN,0.0031,15.24,182.41469,90,0,2.92758,14.93967,1012.16144,340.35234,0.01,0.08509
1.03,9.52504,24.52732,33.13872,24.52732,33.13872,0,0,0,0,0,0,28.61,-80.6,9.79215,6.43606,0,0,0,45505.76078,25905.6117,52.63255,0.10525,NaN,243.8347,NaN,0.07252,7104970.475,1957.17708,3.57542,0.47948,0.52572,0.39568,0.04087,0.04293,NaN,NaN,NaN,NaN,NaN,NaN,NaN,NaN,0.00314,15.24,182.41469,90,0,2.76681,14.93809,1012.13287,340.35138,0.01,0.0856
1.04,9.77197,24.85975,33.24997,24.85975,33.24997,0,0,0,0,0,0,28.61,-80.6,9.79215,5.98445,0,0,0,45491.77347,25891.62439,52.62182,0.10523,NaN,243.81617,NaN,0.07344,7194962.236,1961.69169,3.62962,0.47949,0.52042,0.39567,0.04088,0.04294,NaN,NaN,NaN,NaN,NaN,NaN,NaN,NaN,0.00318,15.24,182.41469,90,0,2.60604,14.93648,1012.10391,340.35041,0.01,0.08611
1.05,10.02224,25.19331,33.36123,25.19331,33.36123,0,0,0,0,0,0,28.61,-80.6,9.79215,5.54379,0,0,0,45477.78616,25877.63708,52.61108,0.10522,NaN,243.79763,NaN,0.07437,7285703.534,1966.20629,3.68603,0.4795,0.51541,0.39566,0.04089,0.04295,NaN,NaN,NaN,NaN,NaN,NaN,NaN,NaN,0.00323,15.24,182.41469,90,0,2.44527,14.93486,1012.07456,340.34942,0.01,0.08666
1.065,10.4039,25.69563,33.49932,25.69563,33.49989,0.00001,0.00001,0.00002,40.7526,0.00252,0.19539,28.61,-80.6,9.79215,6.75171,0,0.01276,-0.00001,45456.80521,25856.65613,52.59497,0.10519,252.83021,243.76979,0.59452,0.07603,7447670.742,1971.84954,3.95757,0.47952,0.52956,0.39565,0.0409,0.04296,1.20418,0.71586,-0.00049,0,0,0,0,0,0.00329,15.24,182.41469,89.99991,-139.995,3.04462,14.93237,1012.0298,340.34792,0.015,0.08723
1.0875,10.99058,26.45365,33.70595,26.45365,33.7072,0.0001,0.00009,0.00013,40.64474,0.00795,0.2899,28.61,-80.6,9.79215,8.46159,0,0.03359,0.00001,45425.33377,25825.18469,52.5708,0.10515,250.23739,243.728,0.42713,0.07858,7697689.142,1980.31442,4.39892,0.47954,0.55099,0.39564,0.04093,0.04298,1.66686,0.7118,-0.00048,0,0,0,0,0.00001,0.00339,15.24,182.41469,89.99939,-140.00226,3.94364,14.92856,1011.96099,340.34561,0.0225,0.08776
1.12125,11.90273,27.60018,33.99592,27.60019,33.99777,0.00045,0.00038,0.00059,40.52824,0.01946,0.3545,28.61,-80.6,9.79214,9.13925,0,0.06569,-0.00002,45377.77538,25777.6263,52.53424,0.1051,249.35316,243.66472,0.37326,0.08214,8045531.325,1991.88523,4.88101,0.47958,0.55962,0.39562,0.04096,0.043,1.86749,0.69667,0.00047,0,0,0,0,0.00003,0.00353,15.24,182.41469,89.99772,-139.99874,4.46116,14.92263,1011.85401,340.34202,0.03375,0.08832
1.17125,13.32547,29.31016,34.2351,29.31019,34.23654,0.00153,0.0013,0.00201,40.45686,0.03703,0.31407,28.61,-80.6,9.79214,7.85115,0,0.12075,-0.00002,45306.75814,25706.60906,52.47957,0.10501,251.11098,243.56999,0.49482,0.08694,8514535.831,2000.03827,5.30828,0.47964,0.54336,0.39558,0.04101,0.04304,1.49461,0.739,-0.00025,0,0,0,0,0.00009,0.00375,15.24,182.41469,89.99308,-139.99467,4.08276,14.91338,1011.68714,340.33641,0.05,0.08887
1.22125,14.83401,31.032,34.46583,31.03204,34.46681,0.0032,0.00273,0.00421,40.44361,0.05054,0.26003,28.61,-80.6,9.79214,6.49362,0,0.18402,-0.00002,45235.68436,25635.53528,52.42478,0.10493,253.29315,243.47489,0.64424,0.09177,8986911.267,2007.76859,5.73222,0.4797,0.52665,0.39555,0.04107,0.04308,1.13995,0.73439,0.00014,0,0,0,0,0.00019,0.00397,15.24,182.41469,89.98549,-139.99681,3.59023,14.90358,1011.51022,340.33047,0.05,0.08941
1.27125,16.42872,32.75668,34.5179,32.75675,34.5197,0.00538,0.00458,0.00707,40.44975,0.06453,0.35243,28.61,-80.6,9.79213,7.47336,0,0.25451,-0.00006,45164.46873,25564.31965,52.3698,0.10484,251.69248,243.37929,0.54549,0.09708,9505413.355,2007.79288,6.5608,0.47977,0.53876,0.39551,0.04113,0.04313,1.39205,0.75948,-0.00039,0,0,0,0,0.00032,0.00419,15.24,182.41469,89.97455,-139.99733,4.37568,14.89321,1011.32319,340.32419,0.05,0.08994
1.32125,18.10966,34.48132,34.51882,34.48143,34.52222,0.00824,0.00702,0.01083,40.44967,0.087,0.4843,28.61,-80.6,9.79213,8.6557,0,0.33612,-0.00005,45093.17029,25493.02121,52.31467,0.10476,250.00479,243.28329,0.44104,0.1025,10034363.89,2005.62157,7.5161,0.47984,0.5538,0.39547,0.0412,0.04318,1.72366,0.75951,0.00011,0,0,0,0,0.0005,0.00441,15.24,182.41469,89.95981,-139.99911,5.36162,14.88229,1011.12604,340.31757,0.05,0.09049
1.37125,19.87709,36.21648,34.73097,36.21665,34.73437,0.01201,0.01024,0.01578,40.44075,0.11125,0.48558,28.61,-80.6,9.79212,8.27123,0,0.42777,0,45021.68318,25421.5341,52.25931,0.10467,250.53682,243.18672,0.48229,0.10756,10527862.23,2012.68404,8.20273,0.47992,0.549,0.39543,0.04127,0.04323,1.61266,0.77714,-0.00014,0,0,0,0,0.00073,0.00463,15.24,182.41469,89.94075,-140.001,5.41434,14.8708,1010.91875,340.3106,0.05,0.09105
1.42125,21.73166,37.96647,35.02765,37.96672,35.03102,0.01671,0.01424,0.02195,40.43092,0.13552,0.4859,28.61,-80.6,9.79212,7.9452,0,0.53029,-0.00009,44949.82805,25349.67897,52.20358,0.10458,251.00923,243.08934,0.51968,0.11267,11026664.67,2023.54023,8.93311,0.48,0.54496,0.39538,0.04134,0.04328,1.52102,0.78973,-0.00046,0,0,0,0,0.00103,0.00485,15.24,182.41469,89.91685,-140.00201,5.49051,14.85874,1010.70124,340.3033,0.05,0.09159
1.47125,23.67445,39.74595,35.62184,39.74627,35.62398,0.02233,0.01902,0.02934,40.42261,0.15899,0.39099,28.61,-80.6,9.79211,6.79501,0,0.64439,-0.00004,44876.95219,25276.80311,52.14697,0.1045,252.81642,242.99027,0.64476,0.11765,11512213.92,2047.48523,9.48368,0.48008,0.53071,0.39534,0.04141,0.04333,1.21561,0.78283,0.00037,0,0,0,0,0.00139,0.00508,15.24,182.41469,89.88753,-140.00308,4.97482,14.84612,1010.47338,340.29565,0.05,0.09213
1.52125,25.7071,41.56023,36.31463,41.5606,36.31583,0.02869,0.02443,0.03768,40.41896,0.1742,0.29481,28.61,-80.6,9.7921,5.74439,0,0.75899,-0.00008,44803.66963,25203.52055,52.08996,0.10441,254.72249,242.89032,0.77639,0.12278,12011983.19,2075.79674,10.08642,0.48016,0.51839,0.39529,0.04149,0.04339,0.96156,0.74492,0.00006,0,0,0,0,0.00177,0.00531,15.24,182.41469,89.85244,-140.00447,4.46214,14.8329,1010.23499,340.28764,0.05,0.09267
1.57125,27.83096,43.39498,36.72512,43.3954,36.72622,0.03562,0.03034,0.04679,40.42005,0.1898,0.28405,28.61,-80.6,9.7921,5.61325,0,0.89031,-0.00018,44729.36675,25129.21767,52.03206,0.10432,254.98944,242.78864,0.80058,0.12818,12538222.74,2091.59443,10.9616,0.48026,0.51701,0.39523,0.04157,0.04345,0.93159,0.74405,0.00015,0,0,0,0,0.00224,0.00555,15.24,182.41469,89.81124,-140.00569,4.59982,14.8191,1009.98589,340.27927,0.05,0.09331
1.62125,30.04694,45.24454,37.017,45.24499,37.01819,0.04308,0.03669,0.05659,40.42431,0.20233,0.2959,28.61,-80.6,9.79209,5.71917,0,1.02176,-0.0001,44655.07069,25054.9216,51.97408,0.10423,254.79313,242.68663,0.79439,0.13369,13074061.26,2102.14133,11.95016,0.48036,0.51831,0.39518,0.04166,0.04352,0.9559,0.75703,0.0001,0,0,0,0,0.00271,0.00578,15.24,182.41469,89.76347,-140.00677,4.92135,14.80469,1009.726,340.27055,0.05,0.09389
1.67125,32.3553,47.09042,36.95063,47.09093,36.95147,0.05112,0.04355,0.06715,40.43007,0.21986,0.24935,28.61,-80.6,9.79208,5.37994,0,1.18562,-0.0003,44580.79565,24980.64657,51.91601,0.10414,255.48047,242.58431,0.8462,0.13908,13598169.5,2096.58094,12.83731,0.48046,0.51463,0.39512,0.04176,0.04359,0.87921,0.74052,0.00023,0,0,0,0,0.00337,0.00602,15.24,182.41469,89.70835,-140.00778,4.89851,14.78969,1009.45526,340.26145,0.05,0.09447
1.72125,34.75571,48.9266,36.75547,48.92712,36.75547,0.05961,0.0508,0.07832,40.43773,0.22475,0.00395,28.61,-80.6,9.79208,3.41977,0,1.31848,-0.00046,44506.56282,24906.41374,51.85789,0.10405,260.13117,242.48171,1.1581,0.14411,14087266.96,2084.9044,13.27282,0.48056,0.49571,0.39506,0.04185,0.04365,0.48496,0.55802,0.00037,0,0,0,0,0.00388,0.00625,15.24,182.41469,89.64568,-140.00884,3.45137,14.77409,1009.17374,340.252,0.05,0.09514
1.77125,37.24806,50.76777,36.8526,50.76825,36.85284,0.0681,0.05806,0.08949,40.44964,0.22118,0.13405,28.61,-80.6,9.79207,2.52311,0,1.43539,-0.00088,44432.46006,24832.31098,51.79978,0.10396,262.79548,242.37894,1.33967,0.14941,14602231.03,2086.60119,14.07713,0.48067,0.48925,0.395,0.04194,0.04372,0.33279,0.44199,-0.0002,0,0,0,0,0.00428,0.00649,15.24,182.41469,89.57671,-140.01008,2.83398,14.75789,1008.88143,340.24218,0.05,0.09579
1.82125,39.83276,52.62053,37.08244,52.62095,37.08301,0.07633,0.06512,0.10034,40.4662,0.21185,0.20532,28.61,-80.6,9.79206,2.29579,0,1.53368,-0.00111,44358.08796,24757.93888,51.74136,0.10387,263.54952,242.27546,1.39594,0.15484,15130148.86,2094.33874,15.07581,0.48078,0.48796,0.39493,0.04205,0.0438,0.29706,0.40965,-0.00014,0,0,0,0,0.00455,0.00673,15.24,182.41469,89.5024,-140.01163,2.77881,14.74109,1008.57828,340.232,0.05,0.09642
1.87125,42.5108,54.50168,37.65192,54.50205,37.65296,0.08417,0.07185,0.11066,40.48718,0.20071,0.27995,28.61,-80.6,9.79205,2.13221,0,1.65602,-0.00129,44282.6713,24682.52222,51.68202,0.10378,264.1162,242.17017,1.44003,0.16037,15666753.3,2117.10205,16.13947,0.48091,0.48714,0.39487,0.04216,0.04388,0.27206,0.38719,0.00023,0,0,0,0,0.00494,0.00697,15.24,182.41469,89.42269,-140.01323,2.78062,14.72368,1008.26419,340.22145,0.05,0.09697
1.92125,45.28383,56.42005,38.39494,56.42035,38.39658,0.09144,0.07813,0.12027,40.51278,0.18316,0.35472,28.61,-80.6,9.79205,2.04339,0,1.74322,-0.00143,44206.62266,24606.47358,51.62208,0.10369,264.43936,242.06363,1.46822,0.16602,16214742.93,2147.49942,17.27839,0.48103,0.48679,0.39479,0.04228,0.04397,0.25875,0.37492,-0.00005,0,0,0,0,0.00511,0.00722,15.24,182.41469,89.33766,-140.01496,2.84856,14.70566,1007.93896,340.21053,0.05,0.0975
1.97125,48.15407,58.3898,39.42531,58.39003,39.4275,0.09803,0.08385,0.129,40.54327,0.1655,0.41529,28.61,-80.6,9.79204,2.15608,0,1.88989,-0.00152,44128.39719,24528.24811,51.56032,0.1036,264.07122,241.95366,1.45128,0.17186,16780096.31,2190.46961,18.53629,0.48117,0.48755,0.39471,0.0424,0.04406,0.27575,0.39425,0.00039,0,0,0,0,0.00561,0.00747,15.24,182.41469,89.24691,-140.01683,3.13387,14.687,1007.60233,340.19922,0.05,0.09804
2.02125,51.12423,60.41746,40.58314,60.41763,40.58681,0.10379,0.08889,0.13666,40.57929,0.13974,0.5457,28.61,-80.6,9.79203,1.81059,0,1.98724,-0.0018,44049.59156,24449.44248,51.498,0.1035,265.30326,241.84248,1.53942,0.17779,17355236.93,2238.87908,19.76436,0.48132,0.48588,0.39463,0.04253,0.04415,0.22467,0.34008,0.00006,0,0,0,0,0.00579,0.00773,15.24,182.41469,89.14996,-140.01862,2.94637,14.66769,1007.25398,340.18752,0.05,0.09858
2.07125,54.19706,62.49618,41.60284,62.49628,41.6058,0.10849,0.09306,0.14294,40.62225,0.11222,0.4958,28.61,-80.6,9.79202,2.74095,0,2.13016,-0.00089,43968.23011,24368.08103,51.43354,0.1034,262.22084,241.72727,1.34472,0.1841,17966154.94,2281.2174,21.43037,0.48148,0.49153,0.39454,0.04268,0.04426,0.36843,0.48959,-0.00027,0,0,0,0,0.00621,0.008,15.24,182.41469,89.04704,-140.02056,4.1465,14.64772,1006.89359,340.17542,0.05,0.09912
2.12125,57.375,64.62165,42.53857,64.62171,42.54049,0.11224,0.09645,0.14799,40.67203,0.09063,0.4039,28.61,-80.6,9.79201,3.72013,0,2.36049,-0.00013,43886.50192,24286.35284,51.36868,0.10331,259.46214,241.61112,1.17133,0.19064,18598925.35,2319.87134,23.33752,0.48165,0.49938,0.39445,0.04283,0.04437,0.54044,0.6261,0.00035,0,0,0,0,0.00711,0.00827,15.24,182.41469,88.93505,-140.02255,5.50101,14.62706,1006.52087,340.1629,0.05,0.09966
2.17125,60.65985,66.7731,43.06138,66.77313,43.06405,0.11519,0.09918,0.152,40.72836,0.06953,0.48002,28.61,-80.6,9.792,3.75773,0,2.62377,-0.0001,43803.35146,24203.20238,51.30256,0.10321,259.38539,241.4925,1.17407,0.19704,19217960.21,2340.03412,24.94708,0.48182,0.49989,0.39435,0.04299,0.04449,0.54755,0.63414,-0.00025,0,0,0,0,0.00822,0.00855,15.24,182.41469,88.81069,-140.02447,5.84979,14.60571,1006.13561,340.14996,0.05,0.1002
2.22125,64.05269,68.94079,43.38764,68.9408,43.39331,0.11719,0.10113,0.1548,40.79301,0.04077,0.70098,28.61,-80.6,9.79199,3.17672,0,2.88956,-0.00076,43720.05973,24119.91065,51.2362,0.10311,260.9954,241.37322,1.28754,0.20331,19824040.99,2351.40111,26.30485,0.482,0.49526,0.39425,0.04315,0.0446,0.44255,0.56005,0.00003,0,0,0,0,0.00937,0.00882,15.24,182.41469,88.67291,-140.02628,5.4712,14.58366,1005.73769,340.1366,0.05,0.10074
2.27125,67.55434,71.12582,43.73236,71.12582,43.74203,0.11784,0.10197,0.15583,40.87034,0.00482,0.91967,28.61,-80.6,9.79198,2.69611,0,3.1215,-0.00103,43636.05306,24035.90398,51.16915,0.10301,262.4523,241.25246,1.39107,0.20967,20437963.31,2363.61942,27.77787,0.48219,0.49195,0.39414,0.04332,0.04472,0.36131,0.49263,0.00026,0,0,0,0,0.01028,0.00911,15.24,182.41469,88.52253,-140.02795,5.18803,14.5609,1005.32701,340.1228,0.05,0.10128
2.32125,71.16568,73.32834,44.08007,73.32836,44.09125,0.1167,0.10133,0.15455,40.96633,0.05056,0.99291,28.61,-80.6,9.79197,2.94833,0,3.36964,-0.0007,43551.93274,23951.78366,51.10188,0.10291,261.71155,241.13107,1.35043,0.2163,21076746.56,2376.16583,29.6669,0.48239,0.49393,0.39403,0.0435,0.04485,0.40342,0.53333,-0.00029,0,0,0,0,0.01126,0.00939,15.24,182.41469,88.36021,-140.02947,5.83373,14.53742,1004.90346,340.10858,0.05,0.10182
2.37125,74.88743,75.5422,44.30558,75.54226,44.31619,0.11366,0.09911,0.1508,41.08734,0.0998,0.96998,28.61,-80.6,9.79196,3.56384,0,3.67997,-0.0004,43467.31176,23867.16268,51.03408,0.1028,259.99515,241.00849,1.24584,0.2231,21733091.81,2383.49362,31.8749,0.4826,0.49902,0.39391,0.04369,0.04499,0.51201,0.62517,-0.00005,0,0,0,0,0.01262,0.00968,15.24,182.41469,88.18415,-140.03085,7.01436,14.51323,1004.46696,340.09392,0.05,0.10236
2.42125,78.72007,77.76408,44.46993,77.76422,44.48637,0.10875,0.09534,0.14463,41.24134,0.14969,1.20935,28.61,-80.6,9.79195,3.21754,0,4.05689,-0.00095,43382.72938,23782.58029,50.96618,0.1027,260.98116,240.88548,1.31861,0.22962,22360215.41,2387.98024,33.57199,0.48281,0.49641,0.3938,0.04388,0.04513,0.45002,0.57887,0.00031,0,0,0,0,0.01448,0.00996,15.24,182.41469,87.991,-140.03198,6.96639,14.48832,1004.01745,340.07882,0.05,0.1029
2.47125,82.66372,79.98213,44.38991,79.98244,44.41939,0.1015,0.08963,0.13541,41.44798,0.22307,1.61817,28.61,-80.6,9.79194,2.28453,0,4.31558,-0.00261,43298.37465,23698.22557,50.89834,0.1026,263.88714,240.76232,1.51738,0.23593,22966370.39,2381.90479,34.97922,0.48301,0.49016,0.39368,0.04407,0.04527,0.29598,0.43402,-0.00025,0,0,0,0,0.01552,0.01025,15.24,182.41469,87.78147,-140.03294,6.07374,14.46269,1003.55493,340.06329,0.05,0.10343
2.52125,86.71798,82.18886,44.16147,82.18944,44.20165,0.09116,0.08136,0.12218,41.7485,0.30902,1.88421,28.61,-80.6,9.79192,1.93554,0,4.5955,-0.00339,43214.136,23613.98692,50.83045,0.1025,265.11925,240.63886,1.60632,0.24241,23588698.54,2369.66504,36.78,0.48323,0.48844,0.39356,0.04427,0.04541,0.24333,0.37401,0.00002,0,0,0,0,0.01668,0.01054,15.24,182.41469,87.5585,-140.03391,5.98266,14.43633,1003.07943,340.04732,0.05,0.10397
2.57125,90.88233,84.3856,43.95894,84.3866,44.01568,0.0772,0.07007,0.10426,42.22806,0.41209,2.23416,28.61,-80.6,9.79191,1.31064,0,4.79444,-0.00689,43130.5818,23530.43272,50.76298,0.1024,267.50436,240.51592,1.7709,0.24877,24199413.11,2358.77555,38.51765,0.48346,0.48591,0.39343,0.04447,0.04555,0.15572,0.25807,-0.0004,0,0,0,0,0.01724,0.01082,15.24,182.41469,87.32358,-140.03493,5.46889,14.40926,1002.59102,340.03091,0.05,0.10451
2.62125,95.15629,86.57305,43.77161,86.57468,43.84489,0.05896,0.05521,0.08078,43.12096,0.53139,2.53395,28.61,-80.6,9.7919,0.92976,0,4.94408,-0.01065,43047.07164,23446.92256,50.69542,0.1023,269.11546,240.39257,1.8847,0.25519,24814534.09,2348.72413,40.43005,0.48369,0.48494,0.39331,0.04468,0.0457,0.10657,0.18372,-0.00007,0,0,0,0,0.01742,0.01111,15.24,182.41469,87.07985,-140.03608,5.29399,14.38148,1002.08976,340.01408,0.05,0.10504
2.67125,99.53953,88.75693,43.69817,88.75942,43.78918,0.03586,0.03631,0.05103,45.35528,0.665,2.82168,28.61,-80.6,9.79188,0.65764,0,5.06261,-0.01677,42963.93685,23363.78777,50.62804,0.1022,270.35269,240.26929,1.97398,0.26164,25431325.7,2343.74939,42.44229,0.48392,0.48456,0.39317,0.04489,0.04586,0.07341,0.12777,-0.0001,0,0,0,0,0.01738,0.01139,15.24,182.41469,86.8295,-140.03738,5.27388,14.35299,1001.57568,339.99681,0.05,0.10558
2.72125,104.03197,90.94092,43.69659,90.94456,43.81258,0.00735,0.01289,0.01483,60.3156,0.81416,3.18598,28.61,-80.6,9.79187,0.10874,0,5.13467,-0.12174,42880.84546,23280.69638,50.56055,0.1021,273.02784,240.14561,2.15763,0.268,26039550.59,2342.14284,44.47379,0.48416,0.48418,0.39304,0.04511,0.04601,0.01148,0.00821,-0.00044,0,0,0,0,0.01704,0.01168,15.24,182.41469,86.57438,-140.03878,4.80292,14.32379,1001.04879,339.97912,0.05,0.10614
2.77125,108.6335,93.12079,43.61477,93.12599,43.75713,-0.02729,-0.01564,0.03145,-150.18044,0.98341,3.52678,28.61,-80.6,9.79186,0.33832,0,-5.05583,-0.04433,42798.01,23197.86091,50.49315,0.102,271.92454,240.02182,2.09335,0.27438,26648933.64,2337.27362,46.63077,0.48441,0.48458,0.3929,0.04533,0.04617,0.03659,0.09267,0.00042,0,0,0,0,-0.01576,0.01197,15.24,182.41469,86.31911,-140.04039,4.45349,14.29388,1000.50911,339.96099,0.05,0.10669
2.82125,113.34388,95.29461,43.49941,95.30172,43.65089,-0.06867,-0.0498,0.08482,-144.05061,1.16384,3.63348,28.61,-80.6,9.79184,0.15681,0,4.99943,-0.07145,42715.21619,23115.06711,50.42564,0.1019,272.86262,239.89762,2.16306,0.28104,27284283.42,2330.50679,48.90752,0.48467,0.48471,0.39276,0.04557,0.04634,0.01665,0.02096,0.00009,0,0,0,0,0.01469,0.01225,15.24,182.41469,86.06749,-140.0423,5.64841,14.26326,999.95666,339.94244,0.05,0.10725
2.87125,118.16285,97.46449,43.41301,97.47378,43.5769,-0.117,-0.08975,0.14746,-142.50671,1.34571,3.77586,28.61,-80.6,9.79183,0.46944,0,5.13088,-0.01817,42632.77751,23032.62843,50.3583,0.1018,271.37687,239.77347,2.07371,0.28767,27916351.29,2325.20708,51.27343,0.48494,0.48527,0.39261,0.04582,0.04652,0.05148,0.09195,-0.00012,0,0,0,0,0.01477,0.01254,15.24,182.41469,85.81473,-140.04425,6.5928,14.23194,999.39148,339.92346,0.05,0.10779
2.92125,123.09022,99.63068,43.33955,99.64263,43.52911,-0.17259,-0.13577,0.21959,-141.80926,1.5432,4.05797,28.61,-80.6,9.79181,0.281,0,5.13319,-0.03178,42550.39082,22950.24174,50.29086,0.1017,272.32597,239.64892,2.14416,0.29411,28528695.65,2320.87319,53.56963,0.48521,0.48533,0.39246,0.04606,0.04669,0.03024,0.05027,-0.00037,0,0,0,0,0.01415,0.01283,15.24,182.41469,85.55819,-140.04616,6.68605,14.19991,998.81358,339.90405,0.05,0.10833
2.97125,128.12577,101.79121,43.22031,101.80626,43.43621,-0.23594,-0.18826,0.30184,-141.4131,1.7502,4.32541,28.61,-80.6,9.7918,0.15327,0,5.2336,-0.05867,42468.36807,22868.21899,50.22359,0.1016,273.00472,239.52444,2.19687,0.30057,29141740.41,2314.71182,55.9355,0.48549,0.48552,0.39231,0.04631,0.04687,0.01628,0.0217,0,0,0,0,0,0.01408,0.01311,15.24,182.41469,85.29899,-140.04814,6.89629,14.16718,998.22299,339.88421,0.05,0.10889
3.02125,133.26914,103.94392,43.06057,103.96272,43.31915,-0.3076,-0.24768,0.39492,-141.15829,1.97685,4.72615,28.61,-80.6,9.79178,0.41538,0,-5.15239,-0.0297,42386.38303,22786.23395,50.15622,0.10151,271.75638,239.39954,2.12315,0.3068,29733022.02,2307.41038,58.30534,0.48576,0.48602,0.39216,0.04656,0.04704,0.04535,0.10927,-0.00003,0,0,0,0,-0.0131,0.0134,15.24,182.41469,85.03906,-140.05014,6.28523,14.13375,997.61976,339.86395,0.05,0.10943
3.07125,138.51999,106.09018,42.93444,106.11343,43.22698,-0.38831,-0.31467,0.4998,-140.9805,2.22114,5.02057,28.61,-80.6,9.79177,0.59936,0,-5.00038,-0.02133,42304.80405,22704.65497,50.08905,0.10141,270.93394,239.27477,2.07737,0.31319,30337681.97,2301.38364,60.78965,0.48605,0.48658,0.392,0.04682,0.04723,0.06668,0.15078,0.00022,0,0,0,0,-0.01184,0.01368,15.24,182.41469,84.78475,-140.05216,6.34324,14.09962,997.00393,339.84327,0.05,0.11001
3.12125,143.87803,108.23119,42.8144,108.25958,43.1561,-0.47864,-0.38968,0.61721,-140.84976,2.47887,5.41999,28.61,-80.6,9.79175,1.05549,0,-4.84325,-0.015,42223.29999,22623.15091,50.02181,0.10131,268.9629,239.14964,1.95625,0.31944,30928279.55,2296.22721,63.37777,0.48633,0.48795,0.39184,0.04708,0.04741,0.12281,0.25065,-0.00045,0,0,0,0,-0.01068,0.01397,15.24,182.41469,84.53853,-140.05433,5.86206,14.06479,996.37552,339.82216,0.05,0.11061
3.17125,149.34277,110.35821,42.52639,110.39285,42.95026,-0.57938,-0.47338,0.74818,-140.74954,2.76531,6.01921,28.61,-80.60001,9.79174,1.95427,0,-4.40132,-0.01178,42142.43452,22542.28544,49.95497,0.10121,265.51349,239.02501,1.73809,0.32547,31496588.66,2285.33303,66.28965,0.48661,0.49196,0.39169,0.04733,0.04759,0.24695,0.43799,-0.00016,0,0,0,0,-0.0085,0.01426,15.24,182.41469,84.3068,-140.05662,4.44393,14.02927,995.7346,339.80064,0.05,0.11118
3.22125,154.91339,112.46669,42.18554,112.50874,42.64585,-0.69163,-0.5667,0.89414,-140.66999,3.07578,6.2489,28.60999,-80.60001,9.79172,2.03779,0,-3.80819,-0.01147,42061.65027,22461.50118,49.88806,0.10112,265.25788,238.90003,1.72952,0.33175,32089055.86,2270.55854,68.93453,0.48691,0.49271,0.39153,0.04761,0.04778,0.25947,0.4552,-0.00016,0,0,0,0,-0.00612,0.01454,15.24,182.41469,84.10072,-140.05916,4.51204,13.99306,995.08126,339.7787,0.05,0.11178
3.27125,160.58895,114.55608,41.79642,114.60607,42.26261,-0.81579,-0.66997,1.05564,-140.6057,3.38466,6.26,28.60999,-80.60001,9.7917,1.74765,0,-3.34274,-0.01085,41982.03431,22381.88523,49.82199,0.10102,266.34889,238.77638,1.80922,0.33814,32690203.78,2252.75785,71.39628,0.48723,0.49154,0.39136,0.04789,0.04798,0.21698,0.39718,-0.00004,0,0,0,0,-0.00454,0.01482,15.24,182.41469,83.92205,-140.06189,5.29258,13.95617,994.41561,339.75634,0.05,0.11245
3.32125,166.3684,116.62227,41.34145,116.68096,41.82169,-0.95194,-0.78324,1.23274,-140.55315,3.70035,6.31967,28.60999,-80.60001,9.79168,1.6326,0,-2.78944,-0.01057,41902.51372,22302.36464,49.75588,0.10092,266.82324,238.65241,1.84848,0.34438,33276964.49,2232.59701,73.97481,0.48754,0.49132,0.39119,0.04817,0.04818,0.20067,0.37405,-0.0001,0,0,0,0,-0.00305,0.0151,15.24,182.41469,83.76888,-140.06483,5.6782,13.91861,993.73777,339.73357,0.05,0.11302
3.37125,172.25061,118.66601,40.88092,118.73383,41.3674,-1.10014,-0.90657,1.42555,-140.50972,4.01255,6.32547,28.60999,-80.60001,9.79167,1.46447,0,-2.36836,-0.01025,41824.36483,22224.21574,49.69077,0.10083,267.51489,238.53012,1.90189,0.35059,33859400.81,2212.09152,76.55119,0.48785,0.49092,0.39102,0.04846,0.04838,0.17734,0.33911,-0.00033,0,0,0,0,-0.00212,0.01538,15.24,182.41469,83.64015,-140.06795,6.15365,13.88037,993.04789,339.7104,0.05,0.11356
3.42125,178.23439,120.6854,40.39162,120.76312,40.90838,-1.26044,-1.04001,1.63412,-140.47347,4.33206,6.48169,28.60999,-80.60001,9.79165,1.63825,0,-1.84227,-0.01019,41746.2463,22146.09722,49.62557,0.10074,266.88757,238.40742,1.86878,0.35655,34416020.05,2191.31974,79.28693,0.48816,0.49198,0.39085,0.04874,0.04857,0.2016,0.3784,0.00043,0,0,0,0,-0.00124,0.01565,15.24,182.41469,83.53491,-140.07122,5.85813,13.84148,992.34609,339.68683,0.05,0.1141
3.47125,184.31865,122.68511,39.99104,122.7735,40.53997,-1.43313,-1.18378,1.85882,-140.44286,4.65798,6.64877,28.60999,-80.60001,9.79163,1.83881,0,-1.2897,-0.0098,41669.31211,22069.16303,49.56123,0.10064,266.18225,238.28614,1.83045,0.36242,34963603.36,2174.46008,82.07004,0.48847,0.49324,0.39068,0.04902,0.04877,0.23045,0.42281,0.00012,0,0,0,0,-0.00059,0.01592,15.24,182.41469,83.4564,-140.07482,5.43936,13.80193,991.63251,339.66287,0.05,0.11464
3.52125,190.50249,124.66873,39.6946,124.76871,40.25042,-1.61855,-1.33819,2.10011,-140.41675,4.99405,6.66595,28.60999,-80.60002,9.79161,1.80206,0,-0.59496,-0.00915,41592.45587,21992.30679,49.49683,0.10055,266.3605,238.16452,1.85013,0.36835,35516051.67,2161.13166,84.7393,0.48879,0.49338,0.39051,0.04931,0.04897,0.22518,0.4169,-0.00006,0,0,0,0,-0.00012,0.01619,15.24,182.41469,83.40895,-140.0786,5.44743,13.76173,990.90725,339.63851,0.05,0.11519
3.57125,196.78506,126.63423,39.31842,126.74591,39.85961,-1.81669,-1.5032,2.35796,-140.39435,5.31965,6.54598,28.60999,-80.60002,9.79159,1.59994,0,-0.06744,-0.00994,41516.72074,21916.57166,49.43326,0.10046,267.16456,238.04424,1.91078,0.37431,36070372.31,2143.86225,87.32922,0.48911,0.49277,0.39034,0.0496,0.04917,0.19641,0.37576,-0.00006,0,0,0,0,0,0.01646,15.24,182.41469,83.39262,-140.08255,5.77957,13.7209,990.17041,339.61376,0.05,0.11573
3.62125,203.16531,128.57599,38.85432,128.69996,39.39588,-2.02737,-1.67867,2.63214,-140.37506,5.6475,6.50977,28.60998,-80.60002,9.79157,1.60401,0,0.59812,-0.00931,41441.01806,21840.86898,49.36958,0.10037,267.19295,237.92357,1.92056,0.38006,36604108.17,2123.52228,90.02936,0.48943,0.49311,0.39017,0.0499,0.04937,0.19704,0.37813,0.00048,0,0,0,0,0.00012,0.01673,15.24,182.41469,83.40597,-140.08673,5.57653,13.67943,989.42211,339.58863,0.05,0.11626
