Time (s),Altitude (m),Vertical velocity (m/s),Vertical acceleration (m/s²),Total velocity (m/s),Total acceleration (m/s²),Position East of launch (m),Position North of launch (m),Lateral distance (m),Lateral direction (°),Lateral velocity (m/s),Lateral acceleration (m/s²),Latitude (°),Longitude (°),Gravitational acceleration (m/s²),Angle of attack (°),Roll rate (°/s),Pitch rate (°/s),Yaw rate (°/s),Mass (g),Motor mass (g),Longitudinal moment of inertia (kg·m²),Rotational moment of inertia (kg·m²),CP location (cm),CG location (cm),Stability margin calibers (​),Mach number (​),Reynolds number (​),Thrust (N),Drag force (N),Drag coefficient (​),Axial drag coefficient (​),Friction drag coefficient (​),Pressure drag coefficient (​),Base drag coefficient (​),Normal force coefficient (​),Pitch moment coefficient (​),Yaw moment coefficient (​),Side force coefficient (​),Roll moment coefficient (​),Roll forcing coefficient (​),Roll damping coefficient (​),Pitch damping coefficient (​),Coriolis acceleration (m/s²),Reference length (cm),Reference area (cm²),Vertical orientation (zenith) (°),Lateral orientation (azimuth) (°),Wind velocity (m/s),Air temperature (°C),Air pressure (mbar),Speed of sound (m/s),Simulation time step (s),Computation time (s)
0.01,-0.00047,-0.09321,-9.32062,0.09321,9.32062,0,0,0,0,0,0,28.61,-80.6,9.79218,180,0,0,0,46599.88038,26999.7313,53.46254,0.10656,NaN,245.24967,NaN,0.00027,26848.688,21.9744,-0.00013,1.31185,-1.31185,1.22862,0.04054,0.04269,NaN,NaN,NaN,NaN,NaN,NaN,NaN,NaN,0.00001,15.24,182.41469,90,0,0,15,1013.25,340.3889,0.01,0.00317
0.02,-0.00046,-0.09245,-9.24483,0.09245,9.24483,0,0,0,0,0,0,28.61,-80.6,9.79218,180,0,0,0,46599.61168,26999.4626,53.46234,0.10656,NaN,245.24933,NaN,0.00027,26630.37399,25.506,-0.00013,1.31496,-1.31496,1.23173,0.04054,0.04269,NaN,NaN,NaN,NaN,NaN,NaN,NaN,NaN,0.00001,15.24,182.41469,90,0,0,15,1013.25,340.3889,0.01,0.00426
0.03,-0.00046,-0.09169,-9.16904,0.09169,9.16904,0,0,0,0,0,0,28.61,-80.6,9.79218,180,0,0,0,46599.34298,26999.1939,53.46214,0.10656,NaN,245.24899,NaN,0.00027,26412.05747,29.0376,-0.00012,1.31811,-1.31811,1.23488,0.04054,0.04269,NaN,NaN,NaN,NaN,NaN,NaN,NaN,NaN,0.00001,15.24,182.41469,90,0,0,15,1013.25,340.3889,0.01,0.00513
0.04,-0.00045,-0.09093,-9.09325,0.09093,9.09325,0,0,0,0,0,0,28.61,-80.6,9.79218,180,0,0,0,46599.07429,26998.9252,53.46194,0.10656,NaN,245.24865,NaN,0.00027,26193.73842,32.5692,-0.00012,1.3213,-1.3213,1.23806,0.04054,0.04269,NaN,NaN,NaN,NaN,NaN,NaN,NaN,NaN,0.00001,15.24,182.41469,90,0,0,15,1013.25,340.3889,0.01,0.00597
0.05,-0.00045,-0.09017,-9.01746,0.09017,9.01746,0,0,0,0,0,0,28.61,-80.6,9.79218,180,0,0,0,46598.80559,26998.65651,53.46174,0.10656,NaN,245.24831,NaN,0.00026,25975.41686,36.1008,-0.00012,1.32452,-1.32452,1.24129,0.04054,0.04269,NaN,NaN,NaN,NaN,NaN,NaN,NaN,NaN,0.00001,15.24,182.41469,90,0,0,15,1013.25,340.3889,0.01,0.00668
0.06,-0.00045,-0.08942,-8.94167,0.08942,8.94167,0,0,0,0,0,0,28.61,-80.6,9.79218,180,0,0,0,46598.53689,26998.38781,53.46154,0.10656,NaN,245.24797,NaN,0.00026,25757.09278,39.6324,-0.00012,1.32778,-1.32778,1.24455,0.04054,0.04269,NaN,NaN,NaN,NaN,NaN,NaN,NaN,NaN,0.00001,15.24,182.41469,90,0,0,15,1013.25,340.3889,0.01,0.00725
0.07,-0.00044,-0.08866,-8.86587,0.08866,8.86587,0,0,0,0,0,0,28.61,-80.6,9.79218,180,0,0,0,46598.26819,26998.11911,53.46133,0.10656,NaN,245.24763,NaN,0.00026,25538.76619,43.164,-0.00012,1.33109,-1.33109,1.24786,0.04054,0.04269,NaN,NaN,NaN,NaN,NaN,NaN,NaN,NaN,0.00001,15.24,182.41469,90,0,0,15,1013.25,340.3889,0.01,0.0078
0.08,-0.00044,-0.0879,-8.79008,0.0879,8.79008,0,0,0,0,0,0,28.61,-80.6,9.79218,180,0,0,0,46597.99949,26997.85041,53.46113,0.10656,NaN,245.24729,NaN,0.00026,25320.43707,46.6956,-0.00012,1.33444,-1.33444,1.25121,0.04054,0.04269,NaN,NaN,NaN,NaN,NaN,NaN,NaN,NaN,0.00001,15.24,182.41469,90,0,0,15,1013.25,340.3889,0.01,0.00835
0.09,-0.00044,-0.08714,-8.71429,0.08714,8.71429,0,0,0,0,0,0,28.61,-80.6,9.79218,180,0,0,0,46597.73079,26997.58171,53.46093,0.10656,NaN,245.24695,NaN,0.00026,25102.10544,50.2272,-0.00011,1.33783,-1.33783,1.2546,0.04054,0.04269,NaN,NaN,NaN,NaN,NaN,NaN,NaN,NaN,0.00001,15.24,182.41469,90,0,0,15,1013.25,340.3889,0.01,0.00901
0.1,-0.00043,-0.08638,-8.63849,0.08638,8.63849,0,0,0,0,0,0,28.61,-80.6,9.79218,180,0,0,0,46597.46209,26997.31301,53.46073,0.10656,NaN,245.24661,NaN,0.00025,24883.77129,53.7588,-0.00011,1.34126,-1.34126,1.25803,0.04054,0.04269,NaN,NaN,NaN,NaN,NaN,NaN,NaN,NaN,0.00001,15.24,182.41469,90,0,0,15,1013.25,340.3889,0.01,0.00957
0.11,-0.00039,-0.07872,-7.87179,0.07872,7.87179,0,0,0,0,0,0,28.61,-80.6,9.79218,180,0,0,0,46594.61047,26994.46139,53.45859,0.10656,NaN,245.24301,NaN,0.00023,22675.39333,89.4797,-0.0001,1.37868,-1.37868,1.29544,0.04054,0.04269,NaN,NaN,NaN,NaN,NaN,NaN,NaN,NaN,0.00001,15.24,182.41469,90,0,0,15,1013.25,340.3889,0.01,0.01033
0.12,-0.00032,-0.06414,-6.41411,0.06414,6.41411,0,0,0,0,0,0,28.61,-80.6,9.79218,180,0,0,0,46591.75886,26991.60977,53.45645,0.10655,NaN,245.23941,NaN,0.00019,18476.588,157.38991,-0.00007,1.46725,-1.46725,1.38401,0.04054,0.04269,NaN,NaN,NaN,NaN,NaN,NaN,NaN,NaN,0.00001,15.24,182.41469,90,0,0,15,1013.25,340.3889,0.01,0.01104
0.13,-0.00025,-0.04956,-4.95626,0.04956,4.95626,0,0,0,0,0,0,28.61,-80.6,9.79218,180,0,0,0,46588.90724,26988.75816,53.45431,0.10655,NaN,245.23581,NaN,0.00015,14277.26863,225.30011,-0.00004,1.5923,-1.5923,1.50907,0.04054,0.04269,NaN,NaN,NaN,NaN,NaN,NaN,NaN,NaN,0.00001,15.24,182.41469,90,0,0,15,1013.25,340.3889,0.01,0.01181
0.14,-0.00017,-0.03498,-3.49823,0.03498,3.49823,0,0,0,0,0,0,28.61,-80.6,9.79218,180,0,0,0,46586.05562,26985.90654,53.45217,0.10655,NaN,245.2322,NaN,0.0001,10077.43505,293.21032,-0.00002,1.79009,-1.79009,1.70686,0.04054,0.04269,NaN,NaN,NaN,NaN,NaN,NaN,NaN,NaN,0,15.24,182.41469,90,0,0,15,1013.25,340.3889,0.01,0.01254
0.15,-0.0001,-0.0204,-2.04002,0.0204,2.04002,0,0,0,0,0,0,28.61,-80.6,9.79218,180,0,0,0,46583.204,26983.05492,53.45003,0.10654,NaN,245.2286,NaN,0.00006,5877.08717,361.12053,-0.00001,1.79306,-1.79306,1.70982,0.04054,0.04269,NaN,NaN,NaN,NaN,NaN,NaN,NaN,NaN,0,15.24,182.41469,90,0,0,15,1013.25,340.3889,0.01,0.01309
0.16,-0.00003,-0.00582,-0.58163,0.00582,0.58163,0,0,0,0,0,0,28.61,-80.6,9.79218,0,0,0,0,46580.35238,26980.2033,53.44789,0.10654,NaN,245.225,NaN,0.00002,1676.2249,429.03073,0,1.79306,1.79306,1.70982,0.04054,0.04269,NaN,NaN,NaN,NaN,NaN,NaN,NaN,NaN,0,15.24,182.41469,90,0,0,15,1013.25,340.3889,0.01,0.01388
0.17,0.00004,0.00877,0.87694,0.00877,0.87694,0,0,0,0,0,0,28.61,-80.6,9.79218,0,0,0,0,46577.50076,26977.35168,53.44575,0.10654,NaN,245.22139,NaN,0.00003,2525.15184,496.94094,0,1.79306,1.79306,1.70982,0.04054,0.04269,NaN,NaN,NaN,NaN,NaN,NaN,NaN,NaN,0,15.24,182.41469,90,0,0,15,1013.24999,340.3889,0.01,0.01475
0.18,0.00025,0.03212,2.33569,0.03212,2.33569,0,0,0,0,0,0,28.61,-80.6,9.79218,0,0,0,0,46574.64914,26974.50006,53.44361,0.10653,NaN,245.21779,NaN,0.00009,9252.19427,564.85114,0.00002,1.79306,1.79306,1.70982,0.04054,0.04269,NaN,NaN,NaN,NaN,NaN,NaN,NaN,NaN,0,15.24,182.41469,90,0,0,15,1013.24997,340.3889,0.01,0.01561
0.19,0.00076,0.07006,3.79461,0.07006,3.79461,0,0,0,0,0,0,28.61,-80.6,9.79218,0,0,0,0,46571.79753,26971.64844,53.44147,0.10653,NaN,245.21418,NaN,0.00021,20181.63928,632.76135,0.00008,1.42799,1.42799,1.34476,0.04054,0.04269,NaN,NaN,NaN,NaN,NaN,NaN,NaN,NaN,0.00001,15.24,182.41469,90,0,0,15,1013.24991,340.3889,0.01,0.01653
0.2,0.00172,0.12259,5.25372,0.12259,5.25372,0,0,0,0,0,0,28.61,-80.6,9.79218,0,0,0,0,46568.94591,26968.79683,53.43933,0.10653,NaN,245.21057,NaN,0.00036,35313.99677,700.67156,0.0002,1.21395,1.21395,1.13072,0.04054,0.04269,NaN,NaN,NaN,NaN,NaN,NaN,NaN,NaN,0.00002,15.24,182.41469,90,0,0,14.99999,1013.2498,340.38889,0.01,0.01733
0.21,0.00329,0.19165,6.90701,0.19165,6.90701,0,0,0,0,0,0,28.61,-80.6,9.79218,0,0,0,0,46561.43341,26961.28433,53.43369,0.10652,NaN,245.20107,NaN,0.00056,55205.62614,777.53855,0.00044,1.07771,1.07771,0.99448,0.04054,0.04269,NaN,NaN,NaN,NaN,NaN,NaN,NaN,NaN,0.00002,15.24,182.41469,90,0,0,14.99998,1013.24961,340.38889,0.01,0.018
0.22,0.00566,0.28121,8.95812,0.28121,8.95812,0,0,0,0,0,0,28.61,-80.6,9.79218,0,0,0,0,46552.75569,26952.60661,53.42717,0.10651,NaN,245.19009,NaN,0.00083,81005.26373,872.87894,0.00087,0.9795,0.9795,0.89627,0.04054,0.04269,NaN,NaN,NaN,NaN,NaN,NaN,NaN,NaN,0.00004,15.24,182.41469,90,0,0,14.99996,1013.24934,340.38888,0.01,0.01859
0.23,0.00902,0.39141,11.02202,0.39141,11.02202,0,0,0,0,0,0,28.61,-80.6,9.79218,0,0,0,0,46544.07797,26943.92889,53.42065,0.1065,NaN,245.17911,NaN,0.00115,112749.3299,968.77912,0.00155,0.90604,0.90604,0.82281,0.04054,0.04269,NaN,NaN,NaN,NaN,NaN,NaN,NaN,NaN,0.00005,15.24,182.41469,90,0,0,14.99994,1013.24894,340.38886,0.01,0.01946
0.24,0.01359,0.52226,13.08668,0.52226,13.08668,0,0,0,0,0,0,28.61,-80.6,9.79218,0,0,0,0,46535.40025,26935.25117,53.41413,0.10649,NaN,245.16812,NaN,0.00153,150440.2091,1064.6793,0.00259,0.8491,0.8491,0.76587,0.04054,0.04269,NaN,NaN,NaN,NaN,NaN,NaN,NaN,NaN,0.00007,15.24,182.41469,90,0,0,14.99991,1013.24841,340.38885,0.01,0.02058
0.25,0.01957,0.67376,15.1521,0.67376,15.1521,0,0,0,0,0,0,28.61,-80.6,9.79218,0,0,0,0,46526.72253,26926.57345,53.40762,0.10648,NaN,245.15713,NaN,0.00198,194080.0752,1160.57948,0.00408,0.80358,0.80358,0.72035,0.04054,0.04269,NaN,NaN,NaN,NaN,NaN,NaN,NaN,NaN,0.00009,15.24,182.41469,90,0,0,14.99987,1013.2477,340.38882,0.01,0.02167
0.26,0.02717,0.84592,17.21828,0.84592,17.21828,0,0,0,0,0,0,28.61,-80.6,9.79218,0,0,0,0,46518.04481,26917.89573,53.40109,0.10647,NaN,245.14614,NaN,0.00249,243671.0905,1256.47966,0.00613,0.76627,0.76627,0.68304,0.04054,0.04269,NaN,NaN,NaN,NaN,NaN,NaN,NaN,NaN,0.00011,15.24,182.41469,90,0,0,14.99982,1013.24681,340.38879,0.01,0.02239
0.27,0.03659,1.03874,19.28521,1.03874,19.28521,0,0,0,0,0,0,28.61,-80.6,9.79218,0,0,0,0,46509.36709,26909.21801,53.39457,0.10646,NaN,245.13514,NaN,0.00305,299215.4039,1352.37985,0.00886,0.73503,0.73503,0.6518,0.04054,0.04269,NaN,NaN,NaN,NaN,NaN,NaN,NaN,NaN,0.00013,15.24,182.41469,90,0,0,14.99976,1013.24571,340.38876,0.01,0.02326
0.28,0.04805,1.25224,21.3529,1.25224,21.3529,0,0,0,0,0,0,28.61,-80.6,9.79218,0,0,0,0,46500.68937,26900.54029,53.38805,0.10645,NaN,245.12413,NaN,0.00368,360715.1497,1448.28003,0.01241,0.70842,0.70842,0.62519,0.04054,0.04269,NaN,NaN,NaN,NaN,NaN,NaN,NaN,NaN,0.00016,15.24,182.41469,90,0,0,14.99969,1013.24437,340.38871,0.01,0.0239
0.29,0.06174,1.48642,23.42134,1.48642,23.42134,0,0,0,0,0,0,28.61,-80.6,9.79218,0,0,0,0,46492.01165,26891.86257,53.38153,0.10643,NaN,245.11313,NaN,0.00437,428172.4457,1544.18021,0.01692,0.68542,0.68542,0.60219,0.04054,0.04269,NaN,NaN,NaN,NaN,NaN,NaN,NaN,NaN,0.00019,15.24,182.41469,90,0,0,14.9996,1013.24276,340.38866,0.01,0.02488
0.3,0.07788,1.7413,25.49053,1.7413,25.49053,0,0,0,0,0,0,28.61,-80.6,9.79218,0,0,0,0,46483.33393,26883.18485,53.375,0.10642,NaN,245.10211,NaN,0.00512,501589.3917,1640.08039,0.02254,0.6653,0.6653,0.58206,0.04054,0.04269,NaN,NaN,NaN,NaN,NaN,NaN,NaN,NaN,0.00022,15.24,182.41469,90,0,0,14.99949,1013.24087,340.38859,0.01,0.02557
0.31,0.09664,2.01021,26.89644,2.01021,26.89644,0,0,0,0,0,0,28.61,-80.6,9.79218,0,0,0,0,46470.9937,26870.84462,53.36572,0.10641,NaN,245.08645,NaN,0.00591,579050.8686,1704.98583,0.02925,0.6479,0.6479,0.56466,0.04054,0.04269,NaN,NaN,NaN,NaN,NaN,NaN,NaN,NaN,0.00026,15.24,182.41469,90,0,0,14.99937,1013.23867,340.38852,0.01,0.02624
0.32,0.1181,2.28348,27.33151,2.28348,27.33151,0,0,0,0,0,0,28.61,-80.6,9.79218,0,0,0,0,46458.24651,26858.09743,53.35613,0.10639,NaN,245.07025,NaN,0.00671,657765.2404,1724.73842,0.03688,0.6331,0.6331,0.54987,0.04054,0.04269,NaN,NaN,NaN,NaN,NaN,NaN,NaN,NaN,0.00029,15.24,182.41469,90,0,0,14.99923,1013.23615,340.38843,0.01,0.02697
0.33,0.14233,2.56101,27.75856,2.56101,27.75856,0,0,0,0,0,0,28.61,-80.6,9.79218,0,0,0,0,46445.49933,26845.35025,53.34654,0.10638,NaN,245.05405,NaN,0.00752,737709.0437,1744.10836,0.04545,0.62028,0.62028,0.53704,0.04054,0.04269,NaN,NaN,NaN,NaN,NaN,NaN,NaN,NaN,0.00033,15.24,182.41469,90,0,0,14.99907,1013.23331,340.38834,0.01,0.02757
0.34,0.16934,2.84282,28.18583,2.84282,28.18583,0,0,0,0,0,0,28.61,-80.6,9.79218,0,0,0,0,46432.75215,26832.60306,53.33694,0.10636,NaN,245.03784,NaN,0.00835,818882.9897,1763.4783,0.05499,0.60899,0.60899,0.52575,0.04054,0.04269,NaN,NaN,NaN,NaN,NaN,NaN,NaN,NaN,0.00036,15.24,182.41469,90,0,0,14.9989,1013.23014,340.38823,0.01,0.02812
0.35,0.1992,3.1289,28.61331,3.1289,28.61331,0,0,0,0,0,0,28.61,-80.6,9.79218,0,0,0,0,46420.00496,26819.85588,53.32735,0.10635,NaN,245.02162,NaN,0.00919,901287.6319,1782.84824,0.06551,0.59894,0.59894,0.5157,0.04055,0.0427,NaN,NaN,NaN,NaN,NaN,NaN,NaN,NaN,0.0004,15.24,182.41469,90,0,0,14.99871,1013.22664,340.38812,0.01,0.02867
0.36,0.23194,3.41926,29.041,3.41926,29.041,0,0,0,0,0,0,28.61,-80.6,9.79218,0,0,0,0,46407.25778,26807.1087,53.31775,0.10633,NaN,245.0054,NaN,0.01005,984923.5201,1802.21818,0.07705,0.58989,0.58989,0.50665,0.04055,0.0427,NaN,NaN,NaN,NaN,NaN,NaN,NaN,NaN,0.00044,15.24,182.41469,90,0,0,14.99849,1013.2228,340.38799,0.01,0.02923
0.37,0.26761,3.7139,29.4689,3.7139,29.4689,0,0,0,0,0,0,28.61,-80.6,9.79218,0,0,0,0,46394.51059,26794.36151,53.30815,0.10632,NaN,244.98916,NaN,0.01091,1069791.2,1821.58812,0.08964,0.58167,0.58167,0.49843,0.04055,0.0427,NaN,NaN,NaN,NaN,NaN,NaN,NaN,NaN,0.00048,15.24,182.41469,90,0,0,14.99826,1013.21861,340.38785,0.01,0.02978
0.38,0.30624,4.01281,29.89702,4.01281,29.89702,0,0,0,0,0,0,28.61,-80.6,9.79218,0,0,0,0,46381.76341,26781.61433,53.29854,0.1063,NaN,244.97291,NaN,0.01179,1155891.214,1840.95806,0.1033,0.57415,0.57415,0.49091,0.04055,0.0427,NaN,NaN,NaN,NaN,NaN,NaN,NaN,NaN,0.00051,15.24,182.41469,90,0,0,14.99801,1013.21408,340.38769,0.01,0.03033
0.39,0.34789,4.31601,30.32534,4.31601,30.32534,0,0,0,0,0,0,28.61,-80.6,9.79218,0,0,0,0,46369.01623,26768.86715,53.28893,0.10629,NaN,244.95666,NaN,0.01268,1243224.099,1860.32801,0.11805,0.56724,0.56724,0.48399,0.04055,0.0427,NaN,NaN,NaN,NaN,NaN,NaN,NaN,NaN,0.00055,15.24,182.41469,90,0,0,14.99774,1013.2092,340.38753,0.01,0.03092
0.4,0.39258,4.6235,30.75388,4.6235,30.75388,0,0,0,0,0,0,28.61,-80.6,9.79218,0,0,0,0,46356.26904,26756.11996,53.27933,0.10627,NaN,244.9404,NaN,0.01358,1331790.39,1879.69795,0.13395,0.56084,0.56084,0.47758,0.04055,0.0427,NaN,NaN,NaN,NaN,NaN,NaN,NaN,NaN,0.00059,15.24,182.41469,90,0,0,14.99745,1013.20396,340.38735,0.01,0.03147
0.41,0.44037,4.93424,31.08035,4.93424,31.08035,0,0,0,0,0,0,28.61,-80.6,9.79218,0,0,0,0,46343.03263,26742.88355,53.26935,0.10626,NaN,244.9235,NaN,0.0145,1421295.145,1894.30769,0.15094,0.5549,0.5549,0.47165,0.04055,0.0427,NaN,NaN,NaN,NaN,NaN,NaN,NaN,NaN,0.00063,15.24,182.41469,90,0,0,14.99714,1013.19835,340.38717,0.01,0.03202
0.42,0.49127,5.24528,31.10941,5.24528,31.10941,0,0,0,0,0,0,28.61,-80.6,9.79218,0,0,0,0,46329.58655,26729.43747,53.2592,0.10624,NaN,244.90633,NaN,0.01541,1510882.719,1895.12255,0.16889,0.54943,0.54943,0.46617,0.04055,0.0427,NaN,NaN,NaN,NaN,NaN,NaN,NaN,NaN,0.00067,15.24,182.41469,90,0,0,14.99681,1013.19238,340.38696,0.01,0.03257
0.43,0.54528,5.55642,31.1196,5.55642,31.1196,0,0,0,0,0,0,28.61,-80.6,9.79218,0,0,0,0,46316.14047,26715.99139,53.24906,0.10622,NaN,244.88914,NaN,0.01632,1600498.495,1895.0631,0.18776,0.54435,0.54435,0.46109,0.04056,0.0427,NaN,NaN,NaN,NaN,NaN,NaN,NaN,NaN,0.00071,15.24,182.41469,90,0,0,14.99646,1013.18605,340.38675,0.01,0.03311
0.44,0.6024,5.86766,31.12976,5.86766,31.12976,0,0,0,0,0,0,28.61,-80.6,9.79218,0,0,0,0,46302.69439,26702.54531,53.23891,0.10621,NaN,244.87195,NaN,0.01724,1690142.457,1895.00365,0.20757,0.53963,0.53963,0.45636,0.04056,0.04271,NaN,NaN,NaN,NaN,NaN,NaN,NaN,NaN,0.00075,15.24,182.41469,90,0,0,14.99608,1013.17935,340.38653,0.01,0.03367
0.45,0.66263,6.179,31.13992,6.179,31.13992,0,0,0,0,0,0,28.61,-80.6,9.79218,0,0,0,0,46289.24831,26689.09923,53.22876,0.10619,NaN,244.85474,NaN,0.01815,1779814.502,1894.94419,0.2283,0.53521,0.53521,0.45195,0.04056,0.04271,NaN,NaN,NaN,NaN,NaN,NaN,NaN,NaN,0.00079,15.24,182.41469,90,0,0,14.99569,1013.17228,340.38629,0.01,0.03424
0.46,0.72598,6.49044,31.15006,6.49044,31.15006,0,0,0,0,0,0,28.61,-80.6,9.79218,0,0,0,0,46275.80223,26675.65315,53.21861,0.10618,NaN,244.83753,NaN,0.01907,1869514.524,1894.88474,0.24994,0.53107,0.53107,0.4478,0.04056,0.04271,NaN,NaN,NaN,NaN,NaN,NaN,NaN,NaN,0.00083,15.24,182.41469,90,0,0,14.99528,1013.16485,340.38604,0.01,0.03479
0.47,0.79244,6.80199,31.16019,6.80199,31.16019,0,0,0,0,0,0,28.61,-80.6,9.79218,0,0,0,0,46262.35616,26662.20708,53.20846,0.10616,NaN,244.8203,NaN,0.01998,1959242.421,1894.82528,0.2725,0.52718,0.52718,0.44391,0.04056,0.04271,NaN,NaN,NaN,NaN,NaN,NaN,NaN,NaN,0.00087,15.24,182.41469,90,0,0,14.99485,1013.15706,340.38578,0.01,0.03542
0.48,0.86202,7.11364,31.1703,7.11364,31.1703,0,0,0,0,0,0,28.61,-80.6,9.79217,0,0,0,0,46248.91008,26648.761,53.1983,0.10614,NaN,244.80307,NaN,0.0209,2048998.09,1894.76583,0.29596,0.52351,0.52351,0.44023,0.04057,0.04271,NaN,NaN,NaN,NaN,NaN,NaN,NaN,NaN,0.00091,15.24,182.41469,90,0,0,14.9944,1013.1489,340.3855,0.01,0.03638
0.49,0.93471,7.42538,31.1804,7.42538,31.1804,0,0,0,0,0,0,28.61,-80.6,9.79217,0,0,0,0,46235.464,26635.31492,53.18814,0.10613,NaN,244.78582,NaN,0.02181,2138781.426,1894.70637,0.32033,0.52003,0.52003,0.43675,0.04057,0.04271,NaN,NaN,NaN,NaN,NaN,NaN,NaN,NaN,0.00095,15.24,182.41469,90,0,0,14.99392,1013.14037,340.38522,0.01,0.03728
0.5,1.01053,7.73723,31.19049,7.73723,31.19049,0,0,0,0,0,0,28.61,-80.6,9.79217,0,0,0,0,46222.01792,26621.86884,53.17797,0.10611,NaN,244.76857,NaN,0.02273,2228592.327,1894.64692,0.3456,0.51674,0.51674,0.43345,0.04057,0.04272,NaN,NaN,NaN,NaN,NaN,NaN,NaN,NaN,0.00099,15.24,182.41469,90,0,0,14.99343,1013.13148,340.38492,0.01,0.03786
0.51,1.08946,8.04922,31.20511,8.04922,31.20511,0,0,0,0,0,0,28.61,-80.6,9.79217,0,0,0,0,46208.55625,26608.40717,53.1678,0.10609,NaN,244.75128,NaN,0.02365,2318443.784,1894.7973,0.37176,0.51361,0.51361,0.43032,0.04057,0.04272,NaN,NaN,NaN,NaN,NaN,NaN,NaN,NaN,0.00103,15.24,182.41469,90,0,0,14.99292,1013.12222,340.38461,0.01,0.03842
0.52,1.17151,8.36146,31.2291,8.36146,31.2291,0,0,0,0,0,0,28.61,-80.6,9.79217,0,0,0,0,46195.09068,26594.94159,53.15761,0.10608,NaN,244.73398,NaN,0.02456,2408362.716,1895.38048,0.39883,0.51063,0.51063,0.42734,0.04058,0.04272,NaN,NaN,NaN,NaN,NaN,NaN,NaN,NaN,0.00107,15.24,182.41469,90,0,0,14.99239,1013.1126,340.38429,0.01,0.03897
0.53,1.25669,8.67394,31.25337,8.67394,31.25337,0,0,0,0,0,0,28.61,-80.6,9.79217,0,0,0,0,46181.6251,26581.47602,53.14743,0.10606,NaN,244.71667,NaN,0.02548,2498349.859,1895.97678,0.42681,0.50779,0.50779,0.42449,0.04058,0.04272,NaN,NaN,NaN,NaN,NaN,NaN,NaN,NaN,0.00111,15.24,182.41469,90,0,0,14.99183,1013.10261,340.38395,0.01,0.03952
0.54,1.34499,8.98666,31.27763,8.98666,31.27763,0,0,0,0,0,0,28.61,-80.6,9.79217,0,0,0,0,46168.15953,26568.01045,53.13724,0.10605,NaN,244.69935,NaN,0.0264,2588405.133,1896.57307,0.45568,0.50507,0.50507,0.42177,0.04058,0.04272,NaN,NaN,NaN,NaN,NaN,NaN,NaN,NaN,0.00115,15.24,182.41469,90,0,0,14.99126,1013.09225,340.3836,0.01,0.04007
0.55,1.43642,9.29962,31.30189,9.29962,31.30189,0,0,0,0,0,0,28.61,-80.6,9.79217,0,0,0,0,46154.69396,26554.54488,53.12705,0.10603,NaN,244.68202,NaN,0.02732,2678528.456,1897.16936,0.48546,0.50247,0.50247,0.41916,0.04059,0.04273,NaN,NaN,NaN,NaN,NaN,NaN,NaN,NaN,0.00119,15.24,182.41469,90,0,0,14.99066,1013.08153,340.38324,0.01,0.04073
0.56,1.53099,9.61282,31.32614,9.61282,31.32614,0,0,0,0,0,0,28.61,-80.6,9.79217,0,0,0,0,46141.22839,26541.07931,53.11685,0.10601,NaN,244.66468,NaN,0.02824,2768719.748,1897.76566,0.51613,0.49998,0.49998,0.41666,0.04059,0.04273,NaN,NaN,NaN,NaN,NaN,NaN,NaN,NaN,0.00123,15.24,182.41469,90,0,0,14.99005,1013.07044,340.38287,0.01,0.04151
0.57,1.62868,9.92627,31.35039,9.92627,31.35039,0,0,0,0,0,0,28.61,-80.6,9.79217,0,0,0,0,46127.76282,26527.61374,53.10665,0.106,NaN,244.64733,NaN,0.02916,2858978.928,1898.36195,0.5477,0.49758,0.49758,0.41426,0.04059,0.04273,NaN,NaN,NaN,NaN,NaN,NaN,NaN,NaN,0.00127,15.24,182.41469,90,0,0,14.98941,1013.05898,340.38248,0.01,0.04237
0.58,1.72951,10.23996,31.37463,10.23996,31.37463,0,0,0,0,0,0,28.61,-80.6,9.79217,0,0,0,0,46114.29725,26514.14817,53.09645,0.10598,NaN,244.62997,NaN,0.03008,2949305.915,1898.95825,0.58016,0.49528,0.49528,0.41195,0.0406,0.04273,NaN,NaN,NaN,NaN,NaN,NaN,NaN,NaN,0.00131,15.24,182.41469,90,0,0,14.98876,1013.04716,340.38209,0.01,0.04324
0.59,1.83348,10.55389,31.39886,10.55389,31.39886,0,0,0,0,0,0,28.61,-80.6,9.79217,0,0,0,0,46100.83168,26500.6826,53.08625,0.10596,NaN,244.6126,NaN,0.03101,3039700.628,1899.55454,0.61351,0.49307,0.49307,0.40973,0.0406,0.04274,NaN,NaN,NaN,NaN,NaN,NaN,NaN,NaN,0.00135,15.24,182.41469,90,0,0,14.98808,1013.03496,340.38168,0.01,0.04414
0.6,1.94059,10.86807,31.42309,10.86807,31.42309,0,0,0,0,0,0,28.61,-80.6,9.79217,0,0,0,0,46087.36611,26487.21703,53.07605,0.10595,NaN,244.59522,NaN,0.03193,3130162.985,1900.15084,0.64776,0.49093,0.49093,0.40759,0.0406,0.04274,NaN,NaN,NaN,NaN,NaN,NaN,NaN,NaN,0.00139,15.24,182.41469,90,0,0,14.98739,1013.0224,340.38126,0.01,0.04501
0.61,2.05084,11.18242,31.44127,11.18242,31.44127,0,0,0,0,0,0,28.61,-80.6,9.79217,0,0,0,0,46073.90764,26473.75856,53.06584,0.10593,NaN,244.57784,NaN,0.03285,3220675.491,1900.46857,0.68289,0.48887,0.48887,0.40553,0.04061,0.04274,NaN,NaN,NaN,NaN,NaN,NaN,NaN,NaN,0.00143,15.24,182.41469,90,0,0,14.98667,1013.00947,340.38082,0.01,0.04563
0.62,2.16424,11.49671,31.43457,11.49671,31.43457,0,0,0,0,0,0,28.61,-80.6,9.79217,0,0,0,0,46060.45391,26460.30482,53.05564,0.10592,NaN,244.56045,NaN,0.03378,3311166.43,1899.6411,0.71888,0.48689,0.48689,0.40353,0.04061,0.04274,NaN,NaN,NaN,NaN,NaN,NaN,NaN,NaN,0.00147,15.24,182.41469,90,0,0,14.98593,1012.99617,340.38038,0.01,0.04619
0.63,2.28078,11.81091,31.42515,11.81091,31.42515,0,0,0,0,0,0,28.61,-80.6,9.79217,0,0,0,0,46047.00017,26446.85109,53.04543,0.1059,NaN,244.54306,NaN,0.0347,3401627.936,1898.68983,0.75571,0.48497,0.48497,0.40161,0.04062,0.04275,NaN,NaN,NaN,NaN,NaN,NaN,NaN,NaN,0.00151,15.24,182.41469,90,0,0,14.98517,1012.9825,340.37992,0.01,0.04674
0.64,2.40046,12.12501,31.41572,12.12501,31.41572,0,0,0,0,0,0,28.61,-80.6,9.79217,0,0,0,0,46033.54643,26433.39735,53.03523,0.10588,NaN,244.52565,NaN,0.03562,3492059.875,1897.73855,0.79339,0.48312,0.48312,0.39975,0.04062,0.04275,NaN,NaN,NaN,NaN,NaN,NaN,NaN,NaN,0.00155,15.24,182.41469,90,0,0,14.9844,1012.96847,340.37944,0.01,0.04729
0.65,2.52328,12.43901,31.40626,12.43901,31.40626,0,0,0,0,0,0,28.61,-80.6,9.79217,0,0,0,0,46020.0927,26419.94362,53.02502,0.10587,NaN,244.50824,NaN,0.03654,3582462.115,1896.78728,0.83191,0.48133,0.48133,0.39795,0.04062,0.04275,NaN,NaN,NaN,NaN,NaN,NaN,NaN,NaN,0.00159,15.24,182.41469,90,0,0,14.9836,1012.95406,340.37896,0.01,0.04784
0.66,2.64924,12.75293,31.39677,12.75293,31.39677,0,0,0,0,0,0,28.61,-80.6,9.79217,0,0,0,0,46006.63896,26406.48988,53.0148,0.10585,NaN,244.49081,NaN,0.03747,3672834.523,1895.83601,0.87126,0.47959,0.47959,0.39621,0.04063,0.04276,NaN,NaN,NaN,NaN,NaN,NaN,NaN,NaN,0.00163,15.24,182.41469,90,0,0,14.98278,1012.93929,340.37846,0.01,0.04838
0.67,2.77834,13.06674,31.38721,13.06674,31.38721,0,0,0,0,0,0,28.61,-80.6,9.79217,0,0,0,0,45993.18522,26393.03614,53.00459,0.10584,NaN,244.47337,NaN,0.03839,3763176.915,1894.88474,0.91395,0.47922,0.47922,0.39583,0.04063,0.04276,NaN,NaN,NaN,NaN,NaN,NaN,NaN,NaN,0.00167,15.24,182.41469,90,0,0,14.98194,1012.92415,340.37796,0.01,0.04893
0.68,2.91057,13.38046,31.3776,13.38046,31.3776,0,0,0,0,0,0,28.61,-80.6,9.79217,0,0,0,0,45979.73149,26379.58241,52.99437,0.10582,NaN,244.45593,NaN,0.03931,3853489,1893.93346,0.95836,0.47922,0.47922,0.39582,0.04064,0.04276,NaN,NaN,NaN,NaN,NaN,NaN,NaN,NaN,0.00171,15.24,182.41469,90,0,0,14.98108,1012.90864,340.37744,0.01,0.04948
0.69,3.04594,13.69409,31.36797,13.69409,31.36797,0,0,0,0,0,0,28.61,-80.6,9.79217,0,0,0,0,45966.27775,26366.12867,52.98415,0.1058,NaN,244.43847,NaN,0.04023,3943770.648,1892.98219,1.00381,0.47923,0.47923,0.39582,0.04064,0.04277,NaN,NaN,NaN,NaN,NaN,NaN,NaN,NaN,0.00175,15.24,182.41469,90,0,0,14.9802,1012.89276,340.3769,0.01,0.05003
0.7,3.18445,14.00762,31.35831,14.00762,31.35831,0,0,0,0,0,0,28.61,-80.6,9.79217,0,0,0,0,45952.82401,26352.67493,52.97392,0.10579,NaN,244.421,NaN,0.04115,4034021.709,1892.03092,1.0503,0.47923,0.47923,0.39582,0.04065,0.04277,NaN,NaN,NaN,NaN,NaN,NaN,NaN,NaN,0.00179,15.24,182.41469,90,0,0,14.9793,1012.87652,340.37636,0.01,0.05059
0.71,3.3261,14.32107,31.35037,14.32107,31.35037,0,0,0,0,0,0,28.61,-80.6,9.79217,0,0,0,0,45939.40926,26339.26018,52.96372,0.10577,NaN,244.40358,NaN,0.04207,4124247.165,1891.1619,1.09782,0.47924,0.47924,0.39581,0.04065,0.04277,NaN,NaN,NaN,NaN,NaN,NaN,NaN,NaN,0.00183,15.24,182.41469,90,0,0,14.97838,1012.8599,340.3758,0.01,0.05119
0.72,3.47087,14.63449,31.34759,14.63449,31.34759,0,0,0,0,0,0,28.61,-80.6,9.79217,0,0,0,0,45926.01121,26325.86213,52.95354,0.10576,NaN,244.38616,NaN,0.043,4214461.698,1890.53126,1.1464,0.47924,0.47924,0.39581,0.04066,0.04278,NaN,NaN,NaN,NaN,NaN,NaN,NaN,NaN,0.00187,15.24,182.41469,90,0,0,14.97744,1012.84292,340.37523,0.01,0.05199
0.73,3.61878,14.94788,31.34511,14.94788,31.34511,0,0,0,0,0,0,28.61,-80.6,9.79217,0,0,0,0,45912.61316,26312.46408,52.94334,0.10574,NaN,244.36873,NaN,0.04392,4304666.135,1889.91574,1.19602,0.47925,0.47925,0.39581,0.04066,0.04278,NaN,NaN,NaN,NaN,NaN,NaN,NaN,NaN,0.00191,15.24,182.41469,90,0,0,14.97648,1012.82558,340.37465,0.01,0.05318
0.74,3.76983,15.26125,31.3426,15.26125,31.3426,0,0,0,0,0,0,28.61,-80.6,9.79217,0,0,0,0,45899.21512,26299.06604,52.93315,0.10572,NaN,244.3513,NaN,0.04484,4394860.336,1889.30021,1.24669,0.47925,0.47925,0.3958,0.04067,0.04278,NaN,NaN,NaN,NaN,NaN,NaN,NaN,NaN,0.00195,15.24,182.41469,90,0,0,14.9755,1012.80786,340.37405,0.01,0.05397
0.75,3.92401,15.5746,31.34007,15.5746,31.34007,0,0,0,0,0,0,28.61,-80.6,9.79217,0,0,0,0,45885.81707,26285.66799,52.92295,0.10571,NaN,244.33385,NaN,0.04576,4485044.167,1888.68468,1.29841,0.47926,0.47926,0.3958,0.04067,0.04279,NaN,NaN,NaN,NaN,NaN,NaN,NaN,NaN,0.00199,15.24,182.41469,90,0,0,14.97449,1012.78978,340.37344,0.01,0.05457
0.76,4.08132,15.88792,31.33752,15.88792,31.33752,0,0,0,0,0,0,28.61,-80.6,9.79217,0,0,0,0,45872.41902,26272.26994,52.91276,0.10569,NaN,244.3164,NaN,0.04668,4575217.495,1888.06915,1.35117,0.47927,0.47927,0.3958,0.04068,0.04279,NaN,NaN,NaN,NaN,NaN,NaN,NaN,NaN,0.00203,15.24,182.41469,90,0,0,14.97347,1012.77133,340.37282,0.01,0.05518
0.77,4.24177,16.20122,31.33494,16.20122,31.33494,0,0,0,0,0,0,28.61,-80.6,9.79216,0,0,0,0,45859.02097,26258.87189,52.90255,0.10567,NaN,244.29893,NaN,0.0476,4665380.186,1887.45362,1.40498,0.47927,0.47927,0.39579,0.04068,0.0428,NaN,NaN,NaN,NaN,NaN,NaN,NaN,NaN,0.00207,15.24,182.41469,90,0,0,14.97243,1012.75251,340.37219,0.01,0.05585
0.78,4.40535,16.51449,31.33233,16.51449,31.33233,0,0,0,0,0,0,28.61,-80.6,9.79216,0,0,0,0,45845.62293,26245.47384,52.89235,0.10566,NaN,244.28145,NaN,0.04852,4755532.107,1886.83809,1.45984,0.47928,0.47928,0.39579,0.04069,0.0428,NaN,NaN,NaN,NaN,NaN,NaN,NaN,NaN,0.00211,15.24,182.41469,90,0,0,14.97137,1012.73333,340.37155,0.01,0.0565
0.79,4.57206,16.82773,31.32971,16.82773,31.32971,0,0,0,0,0,0,28.61,-80.6,9.79216,0,0,0,0,45832.22488,26232.0758,52.88214,0.10564,NaN,244.26397,NaN,0.04944,4845673.124,1886.22256,1.51574,0.47928,0.47928,0.39579,0.04069,0.0428,NaN,NaN,NaN,NaN,NaN,NaN,NaN,NaN,0.00215,15.24,182.41469,90,0,0,14.97028,1012.71377,340.37089,0.01,0.05764
0.8,4.7419,17.14095,31.32706,17.14095,31.32706,0,0,0,0,0,0,28.61,-80.6,9.79216,0,0,0,0,45818.82683,26218.67775,52.87193,0.10563,NaN,244.24647,NaN,0.05036,4935803.103,1885.60703,1.57269,0.47929,0.47929,0.39578,0.0407,0.04281,NaN,NaN,NaN,NaN,NaN,NaN,NaN,NaN,0.00219,15.24,182.41469,90,0,0,14.96918,1012.69385,340.37022,0.01,0.05831
0.81,4.91488,17.45422,31.33251,17.45422,31.33251,0,0,0,0,0,0,28.61,-80.6,9.79216,0,0,0,0,45805.39815,26205.24907,52.86169,0.10561,NaN,244.22892,NaN,0.05128,5025945.244,1885.36274,1.63069,0.4793,0.4793,0.39578,0.0407,0.04281,NaN,NaN,NaN,NaN,NaN,NaN,NaN,NaN,0.00223,15.24,182.41469,90,0,0,14.96805,1012.67357,340.36954,0.01,0.05893
0.82,5.09099,17.76803,31.38661,17.76803,31.38661,0,0,0,0,0,0,28.61,-80.6,9.79216,0,0,0,0,45791.93885,26191.78977,52.85143,0.10559,NaN,244.21133,NaN,0.0522,5116239.637,1887.3459,1.68985,0.4793,0.4793,0.39578,0.04071,0.04282,NaN,NaN,NaN,NaN,NaN,NaN,NaN,NaN,0.00227,15.24,182.41469,90,0,0,14.96691,1012.65291,340.36885,0.01,0.05961
0.83,5.27024,18.08246,31.44883,18.08246,31.44883,0,0,0,0,0,0,28.61,-80.6,9.79216,0,0,0,0,45778.47954,26178.33046,52.84117,0.10558,NaN,244.19372,NaN,0.05313,5206709.549,1889.7003,1.75019,0.47931,0.47931,0.39577,0.04072,0.04282,NaN,NaN,NaN,NaN,NaN,NaN,NaN,NaN,0.00232,15.24,182.41469,90,0,0,14.96574,1012.63189,340.36814,0.01,0.06034
0.84,5.45264,18.39752,31.51107,18.39752,31.51107,0,0,0,0,0,0,28.61,-80.6,9.79216,0,0,0,0,45765.02024,26164.87116,52.8309,0.10556,NaN,244.1761,NaN,0.05405,5297354.951,1892.0547,1.8117,0.47932,0.47932,0.39577,0.04072,0.04283,NaN,NaN,NaN,NaN,NaN,NaN,NaN,NaN,0.00236,15.24,182.41469,90,0,0,14.96456,1012.6105,340.36742,0.01,0.06103
0.85,5.63819,18.7132,31.57331,18.7132,31.57331,0,0,0,0,0,0,28.61,-80.6,9.79216,0,0,0,0,45751.56093,26151.41185,52.82063,0.10555,NaN,244.15847,NaN,0.05498,5388175.798,1894.4091,1.8744,0.47932,0.47932,0.39576,0.04073,0.04283,NaN,NaN,NaN,NaN,NaN,NaN,NaN,NaN,0.0024,15.24,182.41469,90,0,0,14.96335,1012.58873,340.36669,0.01,0.06163
0.86,5.82691,19.0295,31.63556,19.0295,31.63556,0,0,0,0,0,0,28.61,-80.6,9.79216,0,0,0,0,45738.10163,26137.95255,52.81035,0.10553,NaN,244.14083,NaN,0.05591,5479172.047,1896.7635,1.9383,0.47933,0.47933,0.39576,0.04074,0.04284,NaN,NaN,NaN,NaN,NaN,NaN,NaN,NaN,0.00244,15.24,182.41469,90,0,0,14.96213,1012.5666,340.36595,0.01,0.06236
0.87,6.01879,19.34643,31.69782,19.34643,31.69782,0,0,0,0,0,0,28.61,-80.6,9.79216,0,0,0,0,45724.64232,26124.49324,52.80008,0.10551,NaN,244.12318,NaN,0.05684,5570343.652,1899.1179,2.00339,0.47934,0.47934,0.39576,0.04074,0.04284,NaN,NaN,NaN,NaN,NaN,NaN,NaN,NaN,0.00248,15.24,182.41469,90,0,0,14.96088,1012.5441,340.36519,0.01,0.06294
0.88,6.21384,19.66397,31.76009,19.66397,31.76009,0,0,0,0,0,0,28.61,-80.6,9.79216,0,0,0,0,45711.18302,26111.03394,52.7898,0.1055,NaN,244.10552,NaN,0.05777,5661690.566,1901.4723,2.06969,0.47935,0.47935,0.39575,0.04075,0.04285,NaN,NaN,NaN,NaN,NaN,NaN,NaN,NaN,0.00252,15.24,182.41469,90,0,0,14.95961,1012.52122,340.36442,0.01,0.06351
0.89,6.41207,19.98214,31.82238,19.98214,31.82238,0,0,0,0,0,0,28.61,-80.6,9.79216,0,0,0,0,45697.72371,26097.57463,52.77951,0.10548,NaN,244.08785,NaN,0.05871,5753212.744,1903.8267,2.13721,0.47935,0.47935,0.39575,0.04076,0.04285,NaN,NaN,NaN,NaN,NaN,NaN,NaN,NaN,0.00256,15.24,182.41469,90,0,0,14.95832,1012.49797,340.36364,0.01,0.06407
0.9,6.61348,20.30093,31.88467,20.30093,31.88467,0,0,0,0,0,0,28.61,-80.6,9.79216,0,0,0,0,45684.2644,26084.11532,52.76923,0.10546,NaN,244.07017,NaN,0.05964,5844910.137,1906.1811,2.20594,0.47936,0.47936,0.39574,0.04076,0.04286,NaN,NaN,NaN,NaN,NaN,NaN,NaN,NaN,0.0026,15.24,182.41469,90,0,0,14.95701,1012.47435,340.36285,0.01,0.06463
0.91,6.81809,20.6204,31.9515,20.6204,31.9515,0,0,0,0,0,0,28.61,-80.6,9.79216,0,0,0,0,45670.69146,26070.54238,52.75885,0.10545,NaN,244.05233,NaN,0.06058,5936795.442,1908.73771,2.2759,0.47937,0.47937,0.39574,0.04077,0.04286,NaN,NaN,NaN,NaN,NaN,NaN,NaN,NaN,0.00264,15.24,182.41469,90,0,0,14.95568,1012.45035,340.36204,0.01,0.06517
0.92,7.0259,20.94079,32.04503,20.94079,32.04503,0,0,0,0,0,0,28.61,-80.6,9.79216,0,0,0,0,45657.00487,26056.85579,52.74839,0.10543,NaN,244.03433,NaN,0.06153,6028945.757,1912.50759,2.34717,0.47938,0.47938,0.39573,0.04078,0.04287,NaN,NaN,NaN,NaN,NaN,NaN,NaN,NaN,0.00268,15.24,182.41469,90,0,0,14.95433,1012.42598,340.36122,0.01,0.06571
0.93,7.23691,21.26217,32.14301,21.26217,32.14301,0,0,0,0,0,0,28.61,-80.6,9.79216,0,0,0,0,45643.31829,26043.16921,52.73792,0.10542,NaN,244.01632,NaN,0.06247,6121373.73,1916.47968,2.41976,0.47939,0.47939,0.39573,0.04078,0.04287,NaN,NaN,NaN,NaN,NaN,NaN,NaN,NaN,0.00272,15.24,182.41469,90,0,0,14.95296,1012.40123,340.36039,0.01,0.06627
0.94,7.45114,21.58452,32.24102,21.58452,32.24102,0,0,0,0,0,0,28.61,-80.6,9.79216,0,0,0,0,45629.6317,26029.48262,52.72745,0.1054,NaN,243.9983,NaN,0.06342,6214079.411,1920.45176,2.49368,0.47939,0.47939,0.39572,0.04079,0.04288,NaN,NaN,NaN,NaN,NaN,NaN,NaN,NaN,0.00276,15.24,182.41469,90,0,0,14.95157,1012.37611,340.35955,0.01,0.06684
0.95,7.66861,21.90786,32.33905,21.90786,32.33905,0,0,0,0,0,0,28.61,-80.6,9.79215,0,0,0,0,45615.94512,26015.79604,52.71698,0.10538,NaN,243.98027,NaN,0.06437,6307062.799,1924.42385,2.56895,0.4794,0.4794,0.39572,0.0408,0.04288,NaN,NaN,NaN,NaN,NaN,NaN,NaN,NaN,0.0028,15.24,182.41469,90,0,0,14.95015,1012.3506,340.35869,0.01,0.06743
0.96,7.88931,22.23217,32.43712,22.23217,32.43712,0,0,0,0,0,0,28.61,-80.6,9.79215,0,0,0,0,45602.25853,26002.10945,52.7065,0.10537,NaN,243.96222,NaN,0.06532,6400323.892,1928.39594,2.64556,0.47941,0.47941,0.39571,0.04081,0.04289,NaN,NaN,NaN,NaN,NaN,NaN,NaN,NaN,0.00285,15.24,182.41469,90,0,0,14.94872,1012.32472,340.35782,0.01,0.068
0.97,8.11325,22.55747,32.53522,22.55747,32.53522,0,0,0,0,0,0,28.61,-80.6,9.79215,0,0,0,0,45588.57195,25988.42286,52.69602,0.10535,NaN,243.94417,NaN,0.06628,6493862.685,1932.36803,2.72354,0.47942,0.47942,0.39571,0.04082,0.04289,NaN,NaN,NaN,NaN,NaN,NaN,NaN,NaN,0.00289,15.24,182.41469,90,0,0,14.94726,1012.29845,340.35694,0.01,0.06856
0.98,8.34046,22.88375,32.63335,22.88375,32.63335,0,0,0,0,0,0,28.61,-80.6,9.79215,0,0,0,0,45574.88536,25974.73628,52.68554,0.10533,NaN,243.9261,NaN,0.06723,6587679.174,1936.34012,2.80289,0.47943,0.47943,0.3957,0.04082,0.0429,NaN,NaN,NaN,NaN,NaN,NaN,NaN,NaN,0.00293,15.24,182.41469,90,0,0,14.94579,1012.2718,340.35605,0.01,0.06954
0.99,8.57093,23.21101,32.7315,23.21101,32.7315,0,0,0,0,0,0,28.61,-80.6,9.79215,0,0,0,0,45561.19877,25961.04969,52.67505,0.10532,NaN,243.90803,NaN,0.0682,6681773.353,1940.31221,2.88362,0.47944,0.47944,0.3957,0.04083,0.04291,NaN,NaN,NaN,NaN,NaN,NaN,NaN,NaN,0.00297,15.24,182.41469,90,0,0,14.94429,1012.24477,340.35514,0.01,0.07046
1,8.80469,23.53925,32.82968,23.53925,32.82968,0,0,0,0,0,0,28.61,-80.6,9.79215,0,0,0,0,45547.51219,25947.36311,52.66456,0.1053,NaN,243.88994,NaN,0.06916,6776145.214,1944.28429,2.96575,0.47945,0.47945,0.39569,0.04084,0.04291,NaN,NaN,NaN,NaN,NaN,NaN,NaN,NaN,0.00301,15.24,182.41469,90,0,0,14.94277,1012.21736,340.35422,0.01,0.07115
1.01,9.04172,23.86848,32.92852,23.86848,32.92852,0,0,0,0,0,0,28.61,-80.6,9.79215,0,0,0,0,45533.73539,25933.58631,52.654,0.10528,NaN,243.87172,NaN,0.07013,6870796.291,1948.2808,3.04928,0.47946,0.47946,0.39569,0.04085,0.04292,NaN,NaN,NaN,NaN,NaN,NaN,NaN,NaN,0.00306,15.24,182.41469,90,0,0,14.94123,1012.18956,340.35328,0.01,0.07195
1.02,9.28206,24.19878,33.03604,24.19878,33.03604,0,0,0,0,0,0,28.61,-80.6,9.79215,0,0,0,0,45519.74808,25919.599,52.64328,0.10527,NaN,243.85321,NaN,0.0711,6965751.622,1952.66248,3.13425,0.47947,0.47947,0.39568,0.04086,0.04293,NaN,NaN,NaN,NaN,NaN,NaN,NaN,NaN,0.0031,15.24,182.41469,90,0,0,14.93967,1012.16137,340.35234,0.01,0.0729
1.03,9.5257,24.53019,33.14651,24.53019,33.14651,0,0,0,0,0,0,28.61,-80.6,9.79215,0,0,0,0,45505.76078,25905.6117,52.63255,0.10525,NaN,243.8347,NaN,0.07207,7061019.697,1957.17708,3.22068,0.47948,0.47948,0.39568,0.04087,0.04293,NaN,NaN,NaN,NaN,NaN,NaN,NaN,NaN,0.00314,15.24,182.41469,90,0,0,14.93808,1012.13279,340.35138,0.01,0.07346
1.04,9.77267,24.86271,33.25702,24.86271,33.25702,0,0,0,0,0,0,28.61,-80.6,9.79215,0,0,0,0,45491.77347,25891.62439,52.62182,0.10523,NaN,243.81617,NaN,0.07305,7156600.565,1961.69169,3.30858,0.47949,0.47949,0.39567,0.04087,0.04294,NaN,NaN,NaN,NaN,NaN,NaN,NaN,NaN,0.00318,15.24,182.41469,90,0,0,14.93648,1012.10383,340.35041,0.01,0.07395
1.05,10.02296,25.19633,33.36757,25.19633,33.36757,0,0,0,0,0,0,28.61,-80.6,9.79215,0,0,0,0,45477.78616,25877.63708,52.61108,0.10522,NaN,243.79763,NaN,0.07403,7252494.234,1966.20629,3.39796,0.4795,0.4795,0.39567,0.04088,0.04294,NaN,NaN,NaN,NaN,NaN,NaN,NaN,NaN,0.00323,15.24,182.41469,90,0,0,14.93485,1012.07447,340.34942,0.01,0.07445
1.065,10.40468,25.69877,33.50862,25.69877,33.50862,0,0,0,-179.99998,0.00005,0.00329,28.61,-80.6,9.79215,0.00011,0,0,0,45456.80521,25856.65613,52.59497,0.10519,272.86336,243.76979,1.90903,0.07551,7396921.233,1971.84954,3.53483,0.47951,0.47951,0.39566,0.0409,0.04295,0.00001,0.00014,-0.00011,0,0,0,0,0,0.00329,15.24,182.41469,90,0,0,14.93237,1012.02971,340.34792,0.015,0.07501
1.0875,10.99143,26.45705,33.72031,26.45705,33.72031,0,0,0,-179.99995,0.00012,0.00338,28.61,-80.6,9.79215,0.00027,0,0,0,45425.33377,25825.18469,52.5708,0.10515,272.86625,243.728,1.91196,0.07774,7614863.494,1980.31442,3.74651,0.47953,0.47953,0.39564,0.04092,0.04297,0.00003,0.00022,-0.00032,0,0,0,0,0,0.00339,15.24,182.41469,90,0,0,14.92856,1011.96089,340.3456,0.0225,0.07552
1.12125,11.9037,27.60416,34.01359,27.60416,34.01359,-0.00001,0,0.00001,-179.99991,0.00024,0.00352,28.61,-80.6,9.79214,0.0005,0,0,0,45377.77538,25777.6263,52.53424,0.1051,272.87088,243.66472,1.91641,0.08111,7944491.585,1991.88523,4.07842,0.47957,0.47957,0.39562,0.04095,0.043,0.00005,0.00047,-0.00029,0,0,0,0,0,0.00353,15.24,182.41469,90,0,0,14.92263,1011.85389,340.34201,0.03375,0.07602
1.17125,13.32666,29.31501,34.25071,29.31501,34.25071,-0.00002,0,0.00002,-179.99984,0.00042,0.00374,28.61,-80.6,9.79214,0.00083,0,0,0,45306.75814,25706.60906,52.47957,0.10501,272.87835,243.56999,1.92312,0.08614,8435983.227,2000.03827,4.59959,0.47963,0.47963,0.39559,0.04101,0.04303,0.00009,-0.00031,0.00001,0,0,0,0,0,0.00375,15.24,182.41469,90,0,0,14.91338,1011.687,340.33641,0.05,0.07651
1.22125,14.83547,31.03751,34.4785,31.03751,34.4785,-0.00005,0,0.00005,-179.99978,0.00061,0.00395,28.61,-80.6,9.79214,0.00113,0,0,0,45235.68436,25635.53528,52.42478,0.10493,272.88652,243.47489,1.9299,0.0912,8930575.177,2007.76859,5.15586,0.47969,0.47969,0.39555,0.04106,0.04308,0.00012,0.0002,0.00041,0,0,0,0,0,0.00397,15.24,182.41469,90,0,0,14.90357,1011.51005,340.33046,0.05,0.07701
1.27125,16.43046,32.76289,34.53581,32.76289,34.53581,-0.00009,0,0.00009,-179.99971,0.00082,0.00416,28.61,-80.6,9.79213,0.00143,0,0,0,45164.46873,25564.31965,52.3698,0.10484,272.89534,243.37929,1.93675,0.09627,9425890.76,2007.79288,5.74495,0.47976,0.47976,0.39552,0.04112,0.04312,0.00015,-0.00019,-0.00047,0,0,0,0,0,0.00419,15.24,182.41469,90,0,0,14.8932,1011.32298,340.32418,0.05,0.07752
1.32125,18.11174,34.48868,34.54398,34.48868,34.54398,-0.00013,0,0.00013,-179.99965,0.00103,0.00436,28.61,-80.6,9.79213,0.00171,0,0.00007,0,45093.17029,25493.02121,52.31467,0.10476,272.90479,243.28329,1.94367,0.10134,9921142.565,2005.62157,6.36605,0.47983,0.47983,0.39548,0.04118,0.04317,0.00018,0.00011,-0.00005,0,0,0,0,0,0.00442,15.24,182.41469,90,0,0,14.88227,1011.12579,340.31756,0.05,0.07805
1.37125,19.87957,36.22511,34.75665,36.22511,34.75666,-0.00019,0,0.00019,-179.99959,0.00125,0.00457,28.61,-80.6,9.79212,0.00198,0,0.00005,0.00002,45021.68318,25421.5341,52.25931,0.10467,272.91494,243.18672,1.95067,0.10645,10419260.74,2012.68404,7.02315,0.4799,0.4799,0.39544,0.04125,0.04322,0.00021,0.00026,0.00014,0,0,0,0,0,0.00464,15.24,182.41469,90,0,0,14.87078,1010.91846,340.31059,0.05,0.07855
1.42125,21.7346,37.9764,35.05392,37.9764,35.05392,-0.00026,0,0.00026,-179.99952,0.00149,0.00478,28.61,-80.6,9.79212,0.00224,0,0.00016,-0.0001,44949.82805,25349.67897,52.20358,0.10458,272.92581,243.08934,1.95777,0.1116,10921444.52,2023.54023,7.71854,0.47998,0.47998,0.39539,0.04132,0.04327,0.00023,0.00066,-0.0001,0,0,0,0,0,0.00486,15.24,182.41469,90,0,0,14.85873,1010.70089,340.30329,0.05,0.07904
1.47125,23.67793,39.75717,35.64382,39.75717,35.64382,-0.00034,0,0.00034,-179.99946,0.00173,0.00499,28.61,-80.6,9.79211,0.00249,0,0.00018,-0.00006,44876.95219,25276.80311,52.14697,0.1045,272.93753,242.99027,1.96504,0.11683,11431887.59,2047.48523,8.45931,0.48006,0.48006,0.39534,0.0414,0.04332,0.00026,0.00013,0.00041,0,0,0,0,0,0.00509,15.24,182.41469,90,0,0,14.84609,1010.47297,340.29563,0.05,0.07954
1.52125,25.71115,41.57234,36.33241,41.57234,36.33241,-0.00043,0,0.00043,-179.9994,0.00199,0.0052,28.61,-80.6,9.7921,0.00274,0,0.0003,-0.00008,44803.66963,25203.52055,52.08996,0.10441,272.95017,242.89032,1.97243,0.12217,11951989.59,2075.79674,9.24934,0.48015,0.48015,0.39529,0.04148,0.04338,0.00028,0.00042,0.0001,0,0,0,0,0,0.00532,15.24,182.41469,90,0,0,14.83288,1010.23451,340.28762,0.05,0.08003
1.57125,27.83565,43.40806,36.74355,43.40806,36.74355,-0.00054,0,0.00054,-179.99934,0.00225,0.00541,28.61,-80.6,9.7921,0.00297,0,0.00043,-0.00004,44729.36675,25129.21767,52.03206,0.10432,272.96364,242.78864,1.97999,0.12757,12477752.04,2091.59443,10.08419,0.48025,0.48025,0.39524,0.04156,0.04344,0.00031,0.00034,-0.0001,0,0,0,0,0,0.00556,15.24,182.41469,90,0,0,14.81907,1009.98534,340.27926,0.05,0.08054
1.62125,30.0523,45.25848,37.03751,45.25848,37.03751,-0.00066,0,0.00066,-179.99928,0.00253,0.00562,28.61,-80.6,9.79209,0.0032,0,0.00049,-0.00009,44655.07069,25054.9216,51.97408,0.10423,272.97792,242.68663,1.98762,0.13301,13007479.93,2102.14133,10.96225,0.48034,0.48034,0.39518,0.04165,0.04351,0.00033,0.00066,-0.00034,0,0,0,0,0,0.00579,15.24,182.41469,90,0,0,14.80466,1009.72537,340.27052,0.05,0.08106
1.67125,32.36139,47.10557,36.97033,47.10557,36.97033,-0.00079,0,0.00079,-179.99922,0.00281,0.00583,28.61,-80.6,9.79208,0.00342,0,0.00051,-0.00011,44580.79565,24980.64657,51.91601,0.10414,272.99284,242.58431,1.99531,0.13844,13535974.92,2096.58094,11.87527,0.48045,0.48045,0.39513,0.04174,0.04358,0.00036,0.00057,-0.00016,0,0,0,0,0,0.00603,15.24,182.41469,90,0,0,14.78965,1009.45455,340.26143,0.05,0.08157
1.72125,34.76258,48.9424,36.76476,48.9424,36.76476,-0.00094,0,0.00094,-179.99916,0.00311,0.00604,28.61,-80.6,9.79208,0.00364,0,0.00061,-0.00015,44506.56282,24906.41374,51.85789,0.10405,273.00833,242.48171,2.00306,0.14384,14061240.27,2084.9044,12.81941,0.48055,0.48055,0.39506,0.04184,0.04365,0.00038,0.00057,-0.0004,0,0,0,0,0,0.00627,15.24,182.41469,90,0,0,14.77404,1009.17293,340.25197,0.05,0.08208
1.77125,37.25573,50.78394,36.85849,50.78394,36.85849,-0.0011,0,0.0011,-179.9991,0.00342,0.00624,28.61,-80.6,9.79207,0.00386,0,0.00081,-0.00007,44432.46006,24832.31098,51.79978,0.10396,273.02453,242.37894,2.01087,0.14926,14587562.65,2086.60119,13.80222,0.48066,0.48066,0.395,0.04194,0.04372,0.0004,0.00085,-0.00003,0,0,0,0,0,0.0065,15.24,182.41469,90,0,0,14.75784,1008.88053,340.24215,0.05,0.08257
1.82125,39.84124,52.63695,37.08802,52.63695,37.08802,-0.00128,0,0.00128,-179.99905,0.00373,0.00645,28.61,-80.6,9.79206,0.00407,0,0.00097,-0.00015,44358.08796,24757.93888,51.74136,0.10387,273.04153,242.27546,2.01877,0.15471,15116874.42,2094.33874,14.82782,0.48078,0.48078,0.39494,0.04205,0.0438,0.00042,0.00057,-0.00016,0,0,0,0,0,0.00674,15.24,182.41469,90,0,0,14.74103,1008.57729,340.23197,0.05,0.08307
1.87125,42.52011,54.51842,37.65755,54.51842,37.65755,-0.00148,0,0.00148,-179.99899,0.00406,0.00665,28.61,-80.6,9.79205,0.00427,0,0.00131,-0.00009,44282.6713,24682.52222,51.68202,0.10378,273.0595,242.17017,2.02686,0.16024,15654038.56,2117.10205,15.90682,0.4809,0.4809,0.39487,0.04216,0.04388,0.00044,0.00067,-0.00024,0,0,0,0,0,0.00698,15.24,182.41469,90,0,0,14.72362,1008.2631,340.22141,0.05,0.08357
1.92125,45.29398,56.43704,38.40103,56.43704,38.40103,-0.00169,0,0.00169,-179.99893,0.0044,0.00692,28.61,-80.6,9.79205,0.0044,0,0.00164,-0.00002,44206.62266,24606.47358,51.62208,0.10369,273.07893,242.06363,2.03513,0.16589,16201526.98,2147.49942,17.04624,0.48103,0.48103,0.39479,0.04227,0.04396,0.00046,0.00113,-0.00009,0,0,0,0,0,0.00723,15.24,182.41469,89.99993,-177.2279,0,14.70559,1007.93777,340.21049,0.05,0.08408
1.97125,48.16508,58.40719,39.43278,58.40719,39.43278,-0.00192,0,0.00192,-179.99873,0.00475,0.0072,28.61,-80.6,9.79204,0.00451,0,0.00194,-0.00007,44128.39719,24528.24811,51.56032,0.1036,273.09972,241.95366,2.0437,0.17169,16763452.73,2190.46961,18.25743,0.48117,0.48117,0.39472,0.0424,0.04405,0.00047,0.00077,-0.0003,0,0,0,0,0,0.00748,15.24,182.41469,89.99985,-178.00923,0,14.68693,1007.60104,340.19918,0.05,0.08458
2.02125,51.13612,60.43519,40.59053,60.43519,40.59053,-0.00216,0,0.00216,-179.99823,0.00512,0.00752,28.61,-80.6,9.79203,0.0046,0,0.00228,0,44049.59156,24449.44248,51.498,0.1035,273.12204,241.84248,2.05247,0.17765,17341596.62,2238.87908,19.54779,0.48131,0.48131,0.39463,0.04253,0.04415,0.00048,0.00087,-0.00014,0,0,0,0,0,0.00774,15.24,182.41469,89.99974,-178.2604,0,14.66762,1007.25259,340.18747,0.05,0.08508
2.07125,54.20985,62.51438,41.61557,62.51438,41.61557,-0.00243,0,0.00243,-179.99742,0.0055,0.00786,28.61,-80.6,9.79202,0.00467,0,0.00247,0.00003,43968.23011,24368.08103,51.43354,0.1034,273.14584,241.72727,2.06159,0.18377,17934024.01,2281.2174,20.91666,0.48147,0.48147,0.39455,0.04267,0.04425,0.00049,0.00148,0.00004,0,0,0,0,0,0.008,15.24,182.41469,89.99963,-178.87873,0,14.64764,1006.89209,340.17537,0.05,0.08569
2.12125,57.38871,64.64072,42.55909,64.64072,42.55909,-0.00271,0,0.00271,-179.99639,0.0059,0.00822,28.61,-80.6,9.79201,0.00472,0,0.003,0.0001,43886.50192,24286.35284,51.36868,0.10331,273.17113,241.61112,2.07087,0.19003,18539545.91,2319.87134,22.36471,0.48163,0.48163,0.39445,0.04282,0.04436,0.00049,0.00107,0.00005,0,0,0,0,0,0.00828,15.24,182.41469,89.99949,-179.21763,0,14.62697,1006.51926,340.16285,0.05,0.0863
2.17125,60.67455,66.79329,43.08418,66.79329,43.08418,-0.00302,0,0.00302,-179.9952,0.00632,0.0086,28.61,-80.6,9.792,0.00476,0,0.00331,-0.00001,43803.35146,24203.20238,51.30256,0.10321,273.19771,241.4925,2.08039,0.19636,19152139.3,2340.03412,23.88019,0.48181,0.48181,0.39436,0.04297,0.04447,0.0005,0.00074,-0.00039,0,0,0,0,0,0.00855,15.24,182.41469,89.99934,-179.37322,0,14.60562,1006.13389,340.1499,0.05,0.08685
2.22125,64.06842,68.9621,43.40884,68.9621,43.40884,-0.00335,0,0.00335,-179.99397,0.00677,0.009,28.61,-80.6,9.79199,0.00479,0,0.00371,0.00004,43720.05973,24119.91065,51.2362,0.10311,273.22547,241.37322,2.09004,0.20275,19768915.1,2351.40111,25.45752,0.48199,0.48199,0.39426,0.04314,0.04459,0.0005,0.0014,0.00004,0,0,0,0,0,0.00883,15.24,182.41469,89.99916,-179.61276,0,14.58356,1005.73585,340.13653,0.05,0.08742
2.27125,67.57116,71.14816,43.75367,71.14816,43.75367,-0.00369,0,0.00369,-179.99276,0.00723,0.00943,28.61,-80.6,9.79198,0.00479,0,0.00398,0.0001,43636.05306,24035.90398,51.16915,0.10301,273.2545,241.25246,2.09987,0.20918,20390140.64,2363.61942,27.09865,0.48217,0.48217,0.39415,0.04331,0.04472,0.0005,0.00149,0.00011,0,0,0,0,0,0.00911,15.24,182.41469,89.99897,-179.90489,0,14.56079,1005.32503,340.12274,0.05,0.08806
2.32125,71.18365,73.35184,44.106,73.35184,44.106,-0.00407,0,0.00407,-179.99174,0.00771,0.00988,28.61,-80.6,9.79197,0.00478,0,0.00448,0.00007,43551.93274,23951.78366,51.10188,0.10291,273.28477,241.13107,2.10982,0.21567,21015904.51,2376.16583,28.80513,0.48237,0.48237,0.39404,0.04348,0.04484,0.0005,0.00116,0.00036,0,0,0,0,0,0.00939,15.24,182.41469,89.99876,179.82401,0,14.53731,1004.90135,340.10851,0.05,0.08894
2.37125,74.90661,75.56717,44.33884,75.56717,44.33884,-0.00447,0,0.00447,-179.99106,0.00821,0.01036,28.61,-80.6,9.79196,0.00474,0,0.00528,-0.00011,43467.31176,23867.16268,51.03408,0.1028,273.31628,241.00849,2.11993,0.2222,21644474.23,2383.49362,30.57338,0.48257,0.48257,0.39393,0.04366,0.04497,0.00049,0.001,0.00032,0,0,0,0,0,0.00968,15.24,182.41469,89.99851,179.80727,0,14.51311,1004.46471,340.09384,0.05,0.08955
2.42125,78.74055,77.79087,44.50567,77.79087,44.50567,-0.00489,0,0.00489,-179.9907,0.00875,0.01088,28.61,-80.6,9.79195,0.00467,0,0.00556,0.0001,43382.72938,23782.58029,50.96618,0.1027,273.34901,240.88548,2.13015,0.22874,22274888.72,2387.98024,32.40152,0.48278,0.48278,0.39381,0.04385,0.04511,0.00049,0.00072,0.00048,0,0,0,0,0,0.00996,15.24,182.41469,89.99824,179.88939,0,14.48819,1004.01505,340.07874,0.05,0.09013
2.47125,82.68558,80.01071,44.42777,80.01071,44.42777,-0.00534,0,0.00534,-179.99049,0.0093,0.01142,28.61,-80.6,9.79194,0.00459,0,0.00658,0.00017,43298.37465,23698.22557,50.89834,0.1026,273.38274,240.76232,2.14045,0.23528,22903629.39,2381.90479,34.27963,0.48299,0.48299,0.39369,0.04405,0.04525,0.00048,0.00145,0,0,0,0,0,0,0.01024,15.24,182.41469,89.99793,180,0,14.46254,1003.55237,340.0632,0.05,0.09064
2.52125,86.74132,82.21949,44.20578,82.21949,44.20578,-0.00582,0,0.00582,-179.99035,0.00989,0.01198,28.61,-80.6,9.79192,0.00449,0,0.00697,-0.00001,43214.136,23613.98692,50.83045,0.1025,273.41739,240.63886,2.15082,0.24179,23528621.09,2369.66504,36.20105,0.48321,0.48321,0.39357,0.04425,0.0454,0.00047,0.00145,-0.00048,0,0,0,0,0,0.01053,15.24,182.41469,89.9976,179.96796,0,14.43618,1003.0767,340.04723,0.05,0.09115
2.57125,90.90726,84.41865,44.01236,84.41865,44.01236,-0.00633,0,0.00633,-179.99031,0.0105,0.01259,28.61,-80.6,9.79191,0.00435,0,0.00756,0.00004,43130.5818,23530.43272,50.76298,0.1024,273.453,240.51592,2.16123,0.24827,24150262.17,2358.77555,38.16631,0.48344,0.48344,0.39344,0.04445,0.04554,0.00045,0.00141,-0.00043,0,0,0,0,0,0.01081,15.24,182.41469,89.99723,179.897,0,14.4091,1002.5881,340.03082,0.05,0.09165
2.62125,95.18294,86.60905,43.83657,86.60905,43.83658,-0.00687,0,0.00687,-179.99043,0.01114,0.01321,28.61,-80.6,9.7919,0.0042,0,0.0083,0.00032,43047.07164,23446.92256,50.69542,0.1023,273.48946,240.39257,2.17171,0.25472,24768788.25,2348.72413,40.17555,0.48367,0.48367,0.39332,0.04466,0.04569,0.00044,0.00081,0.00026,0,0,0,0,0,0.01109,15.24,182.41469,89.99683,179.87339,0,14.38131,1002.08663,340.01397,0.05,0.09214
2.67125,99.56807,88.7965,43.77666,88.7965,43.77667,-0.00745,0,0.00745,-179.99068,0.01182,0.01389,28.61,-80.6,9.79188,0.00402,0,0.00925,-0.00028,42963.93685,23363.78777,50.62804,0.1022,273.52702,240.26929,2.18227,0.26117,25385843.38,2343.74939,42.23375,0.4839,0.4839,0.39318,0.04488,0.04585,0.00042,0.00067,-0.00049,0,0,0,0,0,0.01137,15.24,182.41469,89.99639,179.89286,0,14.35281,1001.57233,339.9967,0.05,0.09264
2.72125,104.06259,90.98483,43.79379,90.98483,43.79379,-0.00805,0,0.00805,-179.99109,0.01253,0.0146,28.61,-80.6,9.79187,0.00382,0,0.01013,0.00012,42880.84546,23280.69638,50.56055,0.1021,273.56561,240.14561,2.19291,0.26762,26002510.75,2342.14284,44.34448,0.48415,0.48415,0.39305,0.0451,0.046,0.0004,0.00105,-0.00015,0,0,0,0,0,0.01165,15.24,182.41469,89.99593,179.87023,0,14.32359,1001.0452,339.979,0.05,0.09313
2.77125,108.66645,93.17017,43.73329,93.17017,43.73329,-0.0087,0,0.0087,-179.99166,0.01328,0.01536,28.61,-80.6,9.79186,0.00359,0,0.01052,-0.00018,42798.01,23197.86091,50.49315,0.102,273.60528,240.02182,2.20364,0.27406,26617666.43,2337.27362,46.50394,0.4844,0.4844,0.39291,0.04532,0.04617,0.00038,0.00087,-0.00042,0,0,0,0,0,0.01193,15.24,182.41469,89.99542,179.82055,0,14.29367,1000.50524,339.96086,0.05,0.09365
2.82125,113.37945,95.35023,43.627,95.35023,43.627,-0.00938,0,0.00938,-179.99245,0.01407,0.01615,28.61,-80.6,9.79184,0.00334,0,0.01084,0.00003,42715.21619,23115.06711,50.42564,0.1019,273.64591,239.89762,2.21445,0.28049,27230640.97,2330.50679,48.70956,0.48465,0.48465,0.39277,0.04555,0.04633,0.00035,0.00095,-0.00019,0,0,0,0,0,0.01221,15.24,182.41469,89.99489,179.77154,0,14.26303,999.95249,339.9423,0.05,0.09416
2.87125,118.20136,97.52664,43.55315,97.52664,43.55315,-0.01011,0,0.01011,-179.99349,0.0149,0.01698,28.61,-80.6,9.79183,0.00307,0,0.01195,0.00038,42632.77751,23032.62843,50.3583,0.1018,273.68752,239.77347,2.22533,0.28691,27841884.96,2325.20708,50.96272,0.48491,0.48491,0.39263,0.04579,0.0465,0.00032,0.00052,-0.00033,0,0,0,0,0,0.01249,15.24,182.41469,89.99432,179.7781,0,14.23169,999.38696,339.9233,0.05,0.09467
2.92125,123.13203,99.70044,43.5005,99.70044,43.50051,-0.01087,0,0.01087,-179.99474,0.01577,0.01787,28.61,-80.6,9.79181,0.00277,0,0.01254,-0.00032,42550.39082,22950.24174,50.29086,0.1017,273.73018,239.64892,2.2363,0.29332,28451684.58,2320.87319,53.26431,0.48518,0.48518,0.39248,0.04603,0.04667,0.00029,0.00023,-0.00021,0,0,0,0,0,0.01277,15.24,182.41469,89.99372,179.79309,0,14.19964,998.80868,339.90388,0.05,0.09517
2.97125,128.17127,101.86942,43.40309,101.86942,43.4031,-0.01168,0,0.01168,-179.99615,0.01668,0.01877,28.61,-80.6,9.7918,0.00246,0,0.01334,0.00032,42468.36807,22868.21899,50.22359,0.1016,273.77375,239.52444,2.24733,0.29972,29059388.14,2314.71182,55.61171,0.48545,0.48545,0.39233,0.04628,0.04685,0.00026,0.00087,-0.00038,0,0,0,0,0,0.01304,15.24,182.41469,89.99308,179.80125,0,14.16689,998.21766,339.88403,0.05,0.09567
3.02125,133.3188,104.03214,43.27732,104.03214,43.27733,-0.01254,0,0.01254,-179.99772,0.01765,0.01973,28.61,-80.6,9.79178,0.00212,0,0.01362,0.0007,42386.38303,22786.23395,50.15622,0.10151,273.8183,239.39954,2.25845,0.3061,29664575.7,2307.41038,58.003,0.48573,0.48573,0.39217,0.04653,0.04702,0.00022,0.00097,-0.00046,0,0,0,0,0,0.01332,15.24,182.41469,89.99241,179.72468,0,14.13343,997.61394,339.86376,0.05,0.09617
3.07125,138.57434,106.19001,43.17962,106.19001,43.17963,-0.01345,0,0.01345,-179.99954,0.01866,0.02072,28.61,-80.6,9.79177,0.00177,0,0.0143,0.00064,42304.80405,22704.65497,50.08905,0.10141,273.86377,239.27477,2.26962,0.31247,30267636.18,2301.38364,60.43937,0.48602,0.48602,0.39202,0.04679,0.04721,0.00019,0.00011,0.00049,0,0,0,0,0,0.0136,15.24,182.41469,89.99171,179.62832,0,14.09927,996.99755,339.84306,0.05,0.09668
3.12125,143.93768,108.34398,43.10098,108.34399,43.10099,-0.01441,0,0.01441,179.99826,0.01972,0.02173,28.61,-80.6,9.79175,0.00142,0,0.01435,0.00049,42223.29999,22623.15091,50.02181,0.10131,273.91007,239.14964,2.28087,0.31883,30868825.31,2296.22721,62.92163,0.48631,0.48631,0.39186,0.04705,0.04739,0.00015,0.00072,-0.00029,0,0,0,0,0,0.01387,15.24,182.41469,89.991,179.59982,0,14.06441,996.36852,339.82193,0.05,0.09718
3.17125,149.40845,110.48717,42.88419,110.48717,42.8842,-0.01542,0,0.01542,179.99562,0.02083,0.02275,28.61,-80.6,9.79173,0.00106,0,0.01445,0.00179,42142.43452,22542.28544,49.95497,0.10121,273.95719,239.02501,2.29214,0.32515,31466166.04,2285.33303,65.44122,0.4866,0.4866,0.3917,0.04732,0.04758,0.00011,0.00044,-0.0001,0,0,0,0,0,0.01415,15.24,182.41469,89.99026,179.52188,0,14.02885,995.72689,339.80038,0.05,0.09768
3.22125,154.98599,112.61485,42.57349,112.61485,42.57349,-0.01649,0,0.01649,179.99248,0.02199,0.02378,28.61,-80.6,9.79172,0.00069,0,0.01464,0.00291,42061.65027,22461.50118,49.88806,0.10112,274.00494,238.90003,2.30347,0.33144,32058308.17,2270.55854,67.99164,0.4869,0.4869,0.39153,0.04759,0.04777,0.00007,0.00063,-0.00021,0,0,0,0,0,0.01442,15.24,182.41469,89.98951,179.41334,0,13.99259,995.07274,339.77841,0.05,0.09818
3.27125,160.66944,114.7233,42.18746,114.7233,42.18747,-0.01762,0,0.01762,179.9887,0.0232,0.02478,28.61,-80.6,9.7917,0.00036,0,0,0,41982.03431,22381.88523,49.82199,0.10102,274.05297,238.77638,2.31474,0.33766,32644179.89,2252.75785,70.56712,0.4872,0.4872,0.39137,0.04787,0.04796,0.00004,0.00042,-0.00013,0,0,0,0,0,0.01469,15.24,182.41469,89.98874,179.28406,0,13.95565,994.40617,339.75602,0.05,0.0987
3.32125,166.45775,116.80956,41.74304,116.80957,41.74305,-0.01881,0.00001,0.01881,179.98414,0.02446,0.02578,28.61,-80.6,9.79168,0.00016,0,0,0,41902.51372,22302.36464,49.75588,0.10092,274.10071,238.65241,2.326,0.34383,33222937.69,2232.59701,73.16256,0.48751,0.48751,0.3912,0.04815,0.04816,0.00002,0.0003,-0.00007,0,0,0,0,0,0.01496,15.24,182.41469,89.98797,179.18005,0,13.91802,993.72729,339.73322,0.05,0.09921
3.37125,172.34981,118.87308,41.2866,118.87308,41.28661,-0.02007,0.00001,0.02007,179.97868,0.02577,0.02679,28.61,-80.6,9.79167,0.00043,0,0,0,41824.36483,22224.21574,49.69077,0.10083,274.14644,238.53012,2.33703,0.34993,33794415.42,2212.09152,75.77569,0.48782,0.48782,0.39104,0.04843,0.04835,0.00004,0.00043,-0.0004,0,0,0,0,0,0.01522,15.24,182.41469,89.9872,179.08606,0,13.87973,993.03625,339.71001,0.05,0.0997
3.42125,178.34447,120.91337,40.82166,120.91337,40.82167,-0.02139,0.00001,0.02139,179.97227,0.02713,0.02773,28.61,-80.6,9.79165,0.00072,0,-0.01429,0.00314,41746.2463,22146.09722,49.62557,0.10074,274.19235,238.40742,2.34809,0.35596,34358478.97,2191.31974,78.40433,0.48813,0.48813,0.39087,0.04871,0.04855,0.00008,-0.00031,-0.00008,0,0,0,0,0,0.01548,15.24,182.41469,89.98645,179.0338,0,13.84076,992.33318,339.6864,0.05,0.1002
3.47125,184.44067,122.93499,40.44695,122.935,40.44696,-0.02278,0.00001,0.02278,179.96498,0.02854,0.02868,28.61,-80.6,9.79163,0.00101,0,-0.0145,0.0029,41669.31211,22069.16303,49.56123,0.10064,274.23866,238.28614,2.35909,0.36193,34916415.71,2174.46008,81.05301,0.48844,0.48844,0.3907,0.049,0.04875,0.00011,-0.00014,-0.00016,0,0,0,0,0,0.01574,15.24,182.41469,89.98571,179.01595,0,13.80114,991.6182,339.66239,0.05,0.10071
3.52125,190.63759,124.94205,40.15508,124.94206,40.15509,-0.02425,0.00002,0.02425,179.95688,0.03,0.02964,28.61,-80.6,9.79161,0.00129,0,-0.01478,0.00212,41592.45587,21992.30679,49.49683,0.10055,274.28557,238.16452,2.37015,0.36787,35469388.01,2161.13166,83.72608,0.48876,0.48876,0.39053,0.04928,0.04895,0.00013,0.00001,-0.00002,0,0,0,0,0,0.016,15.24,182.41469,89.98497,178.97257,0,13.76086,990.8914,339.63798,0.05,0.10122
3.57125,196.93438,126.92969,39.76547,126.9297,39.76548,-0.02578,0.00002,0.02578,179.948,0.0315,0.03057,28.61,-80.6,9.79159,0.00156,0,-0.01447,0.00253,41516.72074,21916.57166,49.43326,0.10046,274.33284,238.04424,2.38114,0.37375,36016010.29,2143.86225,86.41582,0.48908,0.48908,0.39035,0.04958,0.04915,0.00016,0.00066,0.00021,0,0,0,0,0,0.01625,15.24,182.41469,89.98424,178.93125,0,13.71993,990.1529,339.61318,0.05,0.10171
3.62125,203.32997,128.89409,39.30005,128.89409,39.30006,-0.0274,0.00003,0.0274,179.93839,0.03305,0.0314,28.61,-80.6,9.79157,0.00177,0,-0.01444,0.00131,41441.01806,21840.86898,49.36958,0.10037,274.38069,237.92357,2.3922,0.37956,36555196.71,2123.52228,89.11553,0.48941,0.48941,0.39018,0.04987,0.04935,0.00019,0.00092,-0.00023,0,0,0,0,0,0.0165,15.24,182.41469,89.98354,178.86145,0,13.67836,989.4028,339.58798,0.05,0.1025
3.67125,209.82326,130.83785,38.88614,130.83785,38.88616,-0.02909,0.00004,0.02909,179.92808,0.03463,0.03221,28.61,-80.6,9.79155,0.00196,0,-0.01217,0.00069,41366.58117,21766.43209,49.30686,0.10028,274.42897,237.80449,2.40318,0.38531,37087685.61,2105.45713,91.82743,0.48973,0.48973,0.39001,0.05017,0.04956,0.00021,0.00038,0.00003,0,0,0,0,0,0.01675,15.24,182.41469,89.9829,178.78757,0,13.63615,988.64125,339.56241,0.05,0.10312
3.72125,216.41329,132.76334,38.52019,132.76334,38.52021,-0.03086,0.00004,0.03086,179.91705,0.03626,0.03292,28.61,-80.6,9.79153,0.00207,0,-0.01129,0.00028,41292.20036,21692.05128,49.24406,0.10019,274.47797,237.68507,2.41423,0.39101,37614145.1,2089.45102,94.55359,0.49006,0.49006,0.38983,0.05047,0.04976,0.00022,0.00049,0.00016,0,0,0,0,0,0.017,15.24,182.41469,89.9823,178.68391,0,13.59331,987.86835,339.53645,0.05,0.1037
3.77125,223.09908,134.66854,38.11316,134.66854,38.11317,-0.03272,0.00005,0.03272,179.90526,0.03792,0.03355,28.61,-80.6,9.79151,0.00213,0,-0.01004,0.00146,41219.00951,21618.86043,49.18216,0.1001,274.52746,237.56714,2.42522,0.39666,38133998.85,2071.87272,97.28983,0.49039,0.49039,0.38966,0.05077,0.04997,0.00022,0.00068,0.00017,0,0,0,0,0,0.01724,15.24,182.41469,89.98175,178.58467,0,13.54986,987.08422,339.51011,0.05,0.10444
3.82125,229.87958,136.55172,37.67243,136.55172,37.67244,-0.03465,0.00006,0.03465,179.89267,0.03961,0.03408,28.61,-80.6,9.79149,0.00213,0,-0.00947,0.00163,41145.82314,21545.67406,49.12014,0.10002,274.5775,237.4488,2.43627,0.40223,38646759.94,2052.97421,100.03227,0.49072,0.49072,0.38948,0.05107,0.05017,0.00022,0.00045,0.00026,0,0,0,0,0,0.01748,15.24,182.41469,89.98127,178.48312,0,13.50578,986.28898,339.4834,0.05,0.10515
3.87125,236.75389,138.42073,37.38808,138.42073,37.3881,-0.03668,0.00008,0.03668,179.87928,0.04132,0.03461,28.61,-80.6,9.79147,0.00211,0,-0.00839,0.00025,41073.5268,21473.37772,49.05877,0.09993,274.62802,237.33148,2.44728,0.40777,39154646.75,2040.622,102.79144,0.49106,0.49106,0.3893,0.05137,0.05038,0.00022,0.0003,0.00037,0,0,0,0,0,0.01772,15.24,182.41469,89.98084,178.34016,0,13.4611,985.48274,339.45633,0.05,0.10573
3.92125,243.72149,140.28329,37.25857,140.28329,37.25859,-0.03879,0.00009,0.03879,179.86502,0.04306,0.03507,28.61,-80.6,9.79145,0.002,0,-0.00772,0.00012,41001.23211,21401.08303,48.99728,0.09984,274.67956,237.21375,2.45839,0.41329,39659836.1,2034.68698,105.57835,0.4914,0.4914,0.38912,0.05168,0.05059,0.00021,0.00004,0.00024,0,0,0,0,0,0.01796,15.24,182.41469,89.98045,178.17652,0,13.41581,984.66555,339.42888,0.05,0.10629
